DAY_OF_WEEK,COTA_ROUTE,UNIQUE_STOP_NUMBER,STOP_NAME,ON,OFF,TOTAL,LAT,LONG,RANK
SUN,10,00004134,E BROAD ST & S HIGH ST,212,277,489,39.962141,-83.000119,1
SUN,10,00004149,E BROAD ST & N HIGH ST,238,214,453,39.962364,-82.99965,2
SUN,6,00002900,N HIGH ST & W BROAD ST,97,192,290,39.962808,-83.000821,3
SUN,8,00006407,GREAT SOUTHERN PARK AND,170,113,283,39.885062,-83.000911,4
SUN,1,00006464,S HIGH ST & E BROAD ST,85,184,269,39.961615,-83.000331,5
SUN,6,00006464,S HIGH ST & E BROAD ST,182,78,260,39.961602,-83.000454,6
SUN,10,00005520,WESTWOODS PARK AND RIDE,130,126,256,39.950786,-83.147294,7
SUN,2,00002900,N HIGH ST & W BROAD ST,124,128,251,39.962809,-83.000801,8
SUN,1,00002900,N HIGH ST & W BROAD ST,142,99,241,39.962782,-83.000765,9
SUN,2,00006464,S HIGH ST & E BROAD ST,120,121,241,39.961631,-83.000342,10
SUN,10,00007253,HOLLYWOOD CASINO,106,119,225,39.950658,-83.107738,11
SUN,8,00006839,BOARDWALK ST & SHAPTER A,111,105,216,40.089286,-82.991688,12
SUN,121,00004850,S FRONT ST & W SYCAMORE,126,87,213,39.949228,-82.999888,13
SUN,12,00004193,MCKINLEY AVE & MCK TRANS,104,107,211,39.964374,-83.041358,14
SUN,1,00003522,REYNOLDSBURG PARK & RIDE,103,87,190,39.939366,-82.827755,15
SUN,24,00005312,EASTLAND NB LOT & S HAMI,95,95,190,39.918614,-82.880691,16
SUN,23,00005312,EASTLAND NB LOT & S HAMI,99,84,183,39.918609,-82.88065,17
SUN,5,00006955,GENDER RD TOWN CENTER 1,88,87,175,39.909809,-82.822088,18
SUN,34,00008004,EASTON TERMINAL BAY 2,85,86,171,40.060846,-82.909488,19
SUN,7,00004157,W LONG ST & N HIGH ST,147,21,168,39.964883,-83.001413,20
SUN,24,00008003,EASTON TERMINAL BAY 3,87,78,165,40.060863,-82.909307,21
SUN,4,00007512,BOARDWALK ST & SHAPTER A,84,78,162,40.088137,-82.992126,22
SUN,2,00007256,WESTVIEW TURNAROUND,73,75,149,40.070028,-83.019601,23
SUN,6,00007253,HOLLYWOOD CASINO,74,74,148,39.950698,-83.107804,24
SUN,23,00008005,EASTON TERMINAL BAY 1,75,71,147,40.060876,-82.909684,25
SUN,6,00001132,3401 CLEVELAND AVE,107,38,144,40.036554,-82.962956,26
SUN,8,00004157,W LONG ST & N HIGH ST,59,82,141,39.96488,-83.001501,27
SUN,6,00007505,SPRING RUN DR & E DUBLIN,80,58,138,40.087208,-82.956446,28
SUN,6,00004101,N HIGH ST & W LONG ST,45,92,137,39.965192,-83.001311,29
SUN,3,00007042,PARKWAY CENTRE DR & STRI,57,80,136,39.877613,-83.0456,30
SUN,7,00007515,E SPRING ST & N HIGH ST,3,131,134,39.96631,-83.001094,31
SUN,10,00004150,W BROAD ST & MARCONI BLV,106,25,130,39.96198,-83.003541,32
SUN,12,00007111,W BROAD ST & N HIGH ST,57,72,129,39.962445,-83.000954,33
SUN,31,00007999,EASTON TERMINAL BAY 7,65,64,129,40.060721,-82.909432,34
SUN,2,00004101,N HIGH ST & W LONG ST,64,64,127,39.965189,-83.001287,35
SUN,10,00006827,E BROAD ST & LIMITED STO,60,64,125,39.984888,-82.772041,36
SUN,6,00006415,S FRONT ST & W MAIN ST,71,53,125,39.955239,-83.001011,37
SUN,5,00005312,EASTLAND NB LOT & S HAMI,53,71,123,39.918549,-82.8807,38
SUN,10,00002681,W BROAD ST & S FRONT ST,31,87,119,39.961906,-83.002696,39
SUN,3,00001644,E MAIN ST & S PEARL ST,7,110,118,39.956223,-82.998412,40
SUN,1,00004101,N HIGH ST & W LONG ST,67,51,118,39.965168,-83.001272,41
SUN,3,00002454,W MOUND ST & MOUNT CALVA,93,24,117,39.949417,-83.022248,42
SUN,6,00003086,CLEVELAND AVE & MORSE RD,34,82,117,40.058977,-82.952967,43
SUN,7,00007997,EASTON TERMINAL BAY 9,61,54,116,40.060775,-82.909784,44
SUN,8,00003142,W SPRING ST & N WALL ST,61,54,115,39.966244,-83.002517,45
SUN,6,00005910,N HIGH ST & E GAY ST,83,32,115,39.964401,-83.001014,46
SUN,2,00002329,E MAIN ST & S JAMES RD,69,45,114,39.956634,-82.914409,47
SUN,8,00006370,S HIGH ST & E FULTON ST,22,92,114,39.954211,-82.999017,48
SUN,6,00003133,CLEVELAND AVE & MORSE RD,77,36,113,40.058861,-82.95316,49
SUN,2,00002294,E MAIN ST & S JAMES RD,57,55,113,39.956544,-82.91519,50
SUN,1,00006364,RIVERSIDE HOSPITAL,57,55,112,40.032262,-83.032118,51
SUN,10,00002494,E BROAD ST & S JAMES RD,51,60,111,39.972067,-82.912418,52
SUN,2,00002315,E MAIN ST & S HAMILTON R,89,20,109,39.955534,-82.876448,53
SUN,5,00007456,S FRONT ST & W BROAD ST,57,50,107,39.961639,-83.002468,54
SUN,2,00002307,E MAIN ST & S HAMILTON R,21,86,107,39.955431,-82.877194,55
SUN,23,00004770,N JAMES RD & E BROAD ST,26,81,107,39.972076,-82.913399,56
SUN,32,00008000,EASTON TERMINAL BAY 6,53,53,106,40.060728,-82.909224,57
SUN,2,00001644,E MAIN ST & S PEARL ST,79,27,106,39.956247,-82.998372,58
SUN,33,00007256,WESTVIEW TURNAROUND,53,51,104,40.069908,-83.019517,59
SUN,6,00006902,OHIO HEALTH & AFRICA RD,51,52,103,40.148232,-82.938071,60
SUN,2,00007159,GREAT EASTERN WESTBOUND,47,55,102,39.956167,-82.873648,61
SUN,22,00007063,LONDON-GROVEPORT RD & AL,51,51,101,39.830159,-82.93301,62
SUN,6,00004530,CLEVELAND AVE & INNIS RD,32,68,99,40.037159,-82.962499,63
SUN,102,00007882,MEIJERS & POLARIS WOODS,50,48,98,40.150466,-82.923984,64
SUN,34,00005955,MORSE RD & CLEVELAND AVE,52,45,97,40.059405,-82.952285,65
SUN,2,00005910,N HIGH ST & E GAY ST,44,53,97,39.964432,-83.001009,66
SUN,8,00007257,S HIGH ST & W MAIN ST,81,15,96,39.955672,-82.999446,67
SUN,2,00001185,N HIGH ST & E 6TH AVE,45,51,96,39.989165,-83.005871,68
SUN,141,00005181,COLUMBUS ZOO,34,62,96,40.154368,-83.113846,69
SUN,23,00004766,S JAMES RD & E MAIN ST,50,45,95,39.95711,-82.914692,70
SUN,3,00002374,W MOUND ST & MOUNT CALVA,21,74,95,39.949471,-83.022419,71
SUN,34,00007256,WESTVIEW TURNAROUND,49,46,95,40.069962,-83.019572,72
SUN,8,00006186,GREAT SOUTHERN WAL-MART,37,57,94,39.889101,-83.00076,73
SUN,1,00005217,PICKFORDE DR & GARDENIA,60,34,94,40.065956,-83.086392,74
SUN,1,00004231,EDWARD WEAVER MEMORIAL &,12,80,93,40.020511,-83.024968,75
SUN,5,00004228,W MOUND ST & S HIGH ST,12,81,92,39.95476,-82.999756,76
SUN,10,00004239,W BROAD ST & BROADLAWN A,32,60,92,39.953903,-83.098093,77
SUN,3,00004157,W LONG ST & N HIGH ST,59,33,92,39.964905,-83.001511,78
SUN,5,00002765,E WHITTIER ST & SEYMOUR,42,50,92,39.943151,-82.955334,79
SUN,2,00001797,E MOUND ST & S HIGH ST,12,78,91,39.954952,-82.998883,80
SUN,23,00004775,S JAMES RD & E MAIN ST,44,46,91,39.956632,-82.914892,81
SUN,2,00001301,N HIGH ST & CLARK PL,60,30,90,39.988947,-83.005943,82
SUN,2,00002299,E MAIN ST & COLLINGWOOD,21,69,90,39.956117,-82.901,83
SUN,1,00005910,N HIGH ST & E GAY ST,37,52,89,39.964395,-83.00101,84
SUN,2,00002323,E MAIN ST & COLLINGWOOD,62,27,89,39.956238,-82.900743,85
SUN,4,00006924,THIMBLEBERRY RD & ALUM C,46,43,89,39.885976,-82.930061,86
SUN,6,00004100,N HIGH ST & W NATIONWIDE,24,65,89,39.968216,-83.001856,87
SUN,4,00004157,W LONG ST & N HIGH ST,45,44,89,39.96488,-83.001483,88
SUN,1,00001985,E LIVINGSTON AVE & S JAM,64,25,88,39.946928,-82.915225,89
SUN,5,00004123,N FRONT ST & W BROAD ST,37,51,88,39.963008,-83.002587,90
SUN,102,00006464,S HIGH ST & E BROAD ST,77,9,86,39.961635,-83.000325,91
SUN,6,00004085,S HIGH ST & E RICH ST,45,40,85,39.957248,-82.999616,92
SUN,5,00003142,W SPRING ST & N WALL ST,37,47,84,39.966136,-83.00252,93
SUN,7,00007400,E MOUND ST & S 5TH ST,50,34,84,39.955667,-82.992602,94
SUN,121,00007347,HIGH ST & W SYCAMORE ST,21,62,83,39.949345,-82.998284,95
SUN,23,00004771,S JAMES RD & E BROAD ST,62,20,83,39.971602,-82.913592,96
SUN,102,00002900,N HIGH ST & W BROAD ST,20,62,82,39.962829,-83.000802,97
SUN,23,00001985,E LIVINGSTON AVE & S JAM,54,28,82,39.946973,-82.915188,98
SUN,1,00006370,S HIGH ST & E FULTON ST,31,50,80,39.954223,-82.999025,99
SUN,7,00001644,E MAIN ST & S PEARL ST,35,46,80,39.956223,-82.998524,100
SUN,6,00004092,N HIGH ST & E NATIONWIDE,57,22,80,39.96823,-83.001723,101
SUN,1,00007128,OLENTANGY RIVER RD & HAR,67,12,79,40.020486,-83.024762,102
SUN,10,00004286,W BROAD ST & BROADLAWN A,58,21,79,39.953743,-83.097533,103
SUN,2,00001192,N HIGH ST & W WOODRUFF A,39,38,77,40.003558,-83.008693,104
SUN,9,00007998,EASTON TERMINAL BAY 8,38,39,77,40.060726,-82.909628,105
SUN,152,00005383,CMH AIRPORT BAGGAGE CLAI,71,6,76,39.998601,-82.885086,106
SUN,9,00005520,WESTWOODS PARK AND RIDE,38,39,76,39.950821,-83.147353,107
SUN,1,00003192,E LIVINGSTON AVE & BRICE,13,63,76,39.941944,-82.830441,108
SUN,2,00001297,N HIGH ST & CHITTENDEN A,43,32,75,39.995889,-83.00733,109
SUN,1,00001943,E LIVINGSTON AVE & S JAM,24,51,75,39.946802,-82.914994,110
SUN,7,00003142,W SPRING ST & N WALL ST,20,54,74,39.966126,-83.002537,111
SUN,10,00002525,E BROAD ST & MAPLEWOOD A,52,21,74,39.973212,-82.902801,112
SUN,24,00002564,S HAMILTON RD & E MAIN S,47,27,73,39.955799,-82.876897,113
SUN,10,00002509,E BROAD ST & S HAMILTON,14,59,73,39.97607,-82.874417,114
SUN,21,00007253,HOLLYWOOD CASINO,39,33,72,39.950681,-83.107769,115
SUN,21,00005217,PICKFORDE DR & GARDENIA,37,35,72,40.065947,-83.08667,116
SUN,3,00003142,W SPRING ST & N WALL ST,34,37,71,39.966185,-83.002555,117
SUN,10,00004138,E BROAD ST & S GRANT AVE,26,45,71,39.963203,-82.991349,118
SUN,152,00006322,AIRPORT TERMINAL DEPARTI,3,68,70,39.998256,-82.885075,119
SUN,6,00007210,CLEVELAND AVE & E 5TH AV,38,32,70,39.986668,-82.988754,120
SUN,8,00001644,E MAIN ST & S PEARL ST,13,56,70,39.95622,-82.99839,121
SUN,2,00002266,E MAIN ST & S GRANT AVE,42,27,69,39.95728,-82.989165,122
SUN,10,00004146,E BROAD ST & N GRANT AVE,34,35,69,39.963365,-82.991511,123
SUN,2,00001198,N HIGH ST & E DODRIDGE S,10,58,69,40.016554,-83.011838,124
SUN,5,00004303,1ST COMMUNITY VILLAGE,36,33,69,39.991267,-83.065926,125
SUN,8,00004109,S HIGH ST & W MOUND ST,60,8,68,39.954159,-82.999146,126
SUN,2,00003957,N HIGH ST & E 18TH AVE,33,35,68,40.002864,-83.008692,127
SUN,121,00005910,N HIGH ST & E GAY ST,30,38,68,39.964382,-83.001005,128
SUN,2,00001197,N HIGH ST & E HUDSON ST,16,52,68,40.014245,-83.011224,129
SUN,102,00007983,COTA TRANSIT TERMINAL BA,0,68,68,39.957505,-82.999367,130
SUN,5,00007257,S HIGH ST & W MAIN ST,56,12,67,39.955666,-82.999467,131
SUN,121,00004101,N HIGH ST & W LONG ST,47,20,67,39.965182,-83.00128,132
SUN,2,00004931,E MAIN ST & ALUM CREEK D,22,45,67,39.957279,-82.944346,133
SUN,10,00002631,W BROAD ST & N CENTRAL A,25,41,67,39.957715,-83.038468,134
SUN,31,00002908,NORTHWEST BLVD & GOODALE,34,32,66,39.974986,-83.027667,135
SUN,152,00005382,INTERNATIONAL GATEWAY &,35,31,66,39.998781,-82.892921,136
SUN,8,00005387,GREAT SOUTHERN KROGER,33,33,66,39.887712,-83.001404,137
SUN,2,00001288,N HIGH ST & W HUDSON ST,50,16,66,40.014054,-83.011301,138
SUN,7,00001678,MOUNT VERNON AVE & MIAMI,56,10,66,39.972007,-82.974406,139
SUN,23,00001943,E LIVINGSTON AVE & S JAM,27,39,66,39.946842,-82.914891,140
SUN,34,00001222,N HIGH ST & LELAND AVE,1,64,66,40.063344,-83.019343,141
SUN,10,00007535,E BROAD ST & LOWELL RD,48,17,66,39.971867,-82.915333,142
SUN,8,00004114,S 3RD ST & E BROAD ST,29,37,65,39.962098,-82.997923,143
SUN,1,00001983,E LIVINGSTON AVE & BARNE,46,19,65,39.946446,-82.906042,144
SUN,3,00007098,KINGSDALE MACYS-NORTHWES,38,27,65,40.021108,-83.057338,145
SUN,24,00003936,S HAMILTON RD & E MAIN S,24,40,65,39.95521,-82.876805,146
SUN,1,00001185,N HIGH ST & E 6TH AVE,27,38,64,39.989158,-83.005877,147
SUN,2,00001286,N HIGH ST & OLENTANGY ST,49,15,63,40.019822,-83.012857,148
SUN,2,00004934,E MAIN ST & HOLTZMAN AVE,40,23,63,39.957436,-82.945421,149
SUN,5,00007253,HOLLYWOOD CASINO,32,31,63,39.950738,-83.107622,150
SUN,6,00001134,CLEVELAND AVE & OAKLAND,39,24,63,40.031783,-82.964075,151
SUN,121,00007330,E 3RD AVE & SAY AVE,31,32,63,39.9836,-83.002634,152
SUN,121,00006464,S HIGH ST & E BROAD ST,39,23,62,39.961608,-83.000414,153
SUN,10,00002667,W BROAD ST & STEVENS AVE,31,31,62,39.957226,-83.041372,154
SUN,2,00001287,N HIGH ST & W DODRIDGE S,49,13,62,40.016262,-83.011887,155
SUN,10,00002668,W BROAD ST & S CENTRAL A,41,21,62,39.957658,-83.03778,156
SUN,5,00006852,RENNER RD PARK AND RIDE,31,31,62,39.982313,-83.154309,157
SUN,5,00004894,W 5TH AVE & N HIGH ST,49,13,61,39.987127,-83.005854,158
SUN,6,00001143,CLEVELAND AVE & E HUDSON,30,31,61,40.013371,-82.967647,159
SUN,2,00001188,N HIGH ST & CHITTENDEN A,32,29,61,39.996147,-83.007236,160
SUN,1,00001301,N HIGH ST & CLARK PL,49,12,61,39.988945,-83.005941,161
SUN,24,00006724,MEIJER HAMILTON RD & CHE,31,29,61,40.059515,-82.862225,162
SUN,7,00005382,INTERNATIONAL GATEWAY &,29,32,60,39.998602,-82.892832,163
SUN,34,00004778,MORSE RD & N HIGH ST,59,1,60,40.062442,-83.018805,164
SUN,6,00003125,CLEVELAND AVE & STATE RO,56,4,60,40.084234,-82.951254,165
SUN,1,00001192,N HIGH ST & W WOODRUFF A,27,33,59,40.003555,-83.008702,166
SUN,2,00004092,N HIGH ST & E NATIONWIDE,34,25,59,39.96822,-83.001736,167
SUN,1,00004109,S HIGH ST & W MOUND ST,41,18,59,39.954135,-82.999104,168
SUN,6,00001124,CLEVELAND AVE & HUY RD,7,51,58,40.034848,-82.96344,169
SUN,24,00004352,N HAMILTON RD & E BROAD,21,37,58,39.976612,-82.873854,170
SUN,10,00002632,W BROAD ST & STEVENS AVE,27,31,58,39.95736,-83.041402,171
SUN,2,00001184,N HIGH ST & E 5TH AVE,25,33,58,39.987515,-83.005545,172
SUN,10,00002675,W BROAD ST & S DAVIS AVE,36,22,58,39.959626,-83.021312,173
SUN,6,00007257,S HIGH ST & W MAIN ST,19,39,58,39.955673,-82.999454,174
SUN,10,00002498,3675 E BROAD ST,17,40,58,39.972981,-82.903916,175
SUN,2,00001200,N HIGH ST & OLENTANGY ST,15,43,58,40.019469,-83.012586,176
SUN,34,00005963,MORSE RD & TAMARACK BLVD,15,43,57,40.060474,-82.971488,177
SUN,8,00007594,E 11TH AVE & N HIGH ST,3,54,57,39.994863,-83.006683,178
SUN,6,00004228,W MOUND ST & S HIGH ST,35,22,57,39.954819,-82.999801,179
SUN,2,00002346,E MAIN ST & KELTON AVE,34,22,56,39.957682,-82.958431,180
SUN,6,00001113,CLEVELAND AVE & E HUDSON,27,29,56,40.013484,-82.967456,181
SUN,2,00002353,E MAIN ST & CARPENTER ST,33,23,56,39.957988,-82.97439,182
SUN,2,00004085,S HIGH ST & E RICH ST,33,23,56,39.957249,-82.999621,183
SUN,121,00004095,N HIGH ST & SPRUCE ST,14,43,56,39.972708,-83.002624,184
SUN,102,00001197,N HIGH ST & E HUDSON ST,19,36,56,40.014264,-83.011226,185
SUN,1,00004092,N HIGH ST & E NATIONWIDE,33,23,56,39.968198,-83.001746,186
SUN,121,00002900,N HIGH ST & W BROAD ST,23,33,56,39.962838,-83.000806,187
SUN,1,00001973,E LIVINGSTON AVE & S HAM,40,16,56,39.944893,-82.878496,188
SUN,6,00007211,CLEVELAND AVE & E 5TH AV,37,18,55,39.985916,-82.98923,189
SUN,1,00001297,N HIGH ST & CHITTENDEN A,37,17,55,39.995884,-83.007331,190
SUN,5,00003746,W 5TH AVE & N HIGH ST,19,36,55,39.987051,-83.005767,191
SUN,10,00004287,W BROAD ST & S WILSON RD,36,18,54,39.953915,-83.094114,192
SUN,10,00002656,W BROAD ST & S HAGUE AVE,36,18,54,39.954879,-83.074302,193
SUN,121,00001182,N HIGH ST & E 2ND AVE,7,47,54,39.983315,-83.004614,194
SUN,25,00008002,EASTON TERMINAL BAY 4,28,26,53,40.060814,-82.909085,195
SUN,2,00001193,N HIGH ST & E LANE AVE,28,25,53,40.006448,-83.00927,196
SUN,9,00003142,W SPRING ST & N WALL ST,35,18,53,39.966223,-83.002542,197
SUN,10,00004135,E BROAD ST & S 3RD ST,24,30,53,39.962485,-82.997512,198
SUN,2,00001302,N HIGH ST & W 5TH AVE,18,35,53,39.986761,-83.005492,199
SUN,10,00002660,W BROAD ST & N WAYNE AVE,35,18,53,39.955372,-83.064109,200
SUN,5,00004100,N HIGH ST & W NATIONWIDE,23,29,53,39.968244,-83.001923,201
SUN,10,00002624,W BROAD ST & N DAVIS AVE,20,32,53,39.959749,-83.021468,202
SUN,1,00001946,E LIVINGSTON AVE & BARNE,12,41,52,39.946332,-82.906057,203
SUN,10,00004408,3440 W BROAD ST,7,45,52,39.954134,-83.092619,204
SUN,1,00001188,N HIGH ST & CHITTENDEN A,31,21,52,39.996158,-83.007244,205
SUN,1,00007257,S HIGH ST & W MAIN ST,32,19,52,39.95567,-82.999437,206
SUN,34,00005970,MORSE RD & CLEVELAND AVE,41,11,51,40.059768,-82.954718,207
SUN,6,00005874,CLEVELAND AVE & STATE RO,11,40,51,40.086128,-82.950899,208
SUN,2,00001300,N HIGH ST & KING AVE,13,37,51,39.990519,-83.00625,209
SUN,4,00003142,W SPRING ST & N WALL ST,20,30,51,39.966127,-83.002435,210
SUN,31,00001197,N HIGH ST & E HUDSON ST,40,11,50,40.014227,-83.011175,211
SUN,3,00004228,W MOUND ST & S HIGH ST,49,1,50,39.954789,-82.999823,212
SUN,10,00004148,E BROAD ST & N 3RD ST,17,33,50,39.962643,-82.997626,213
SUN,2,00000036,HANSON ST & E MAIN ST,24,26,50,39.956649,-82.779755,214
SUN,2,00007537,N HIGH ST & W LANE AVE,26,25,50,40.005573,-83.00922,215
SUN,10,00005295,E BROAD ST & SCHOFIELD D,28,22,50,39.975555,-82.880311,216
SUN,22,00002908,NORTHWEST BLVD & GOODALE,25,25,50,39.975052,-83.027679,217
SUN,1,00004085,S HIGH ST & E RICH ST,17,33,50,39.957218,-82.999616,218
SUN,2,00007540,S GRANT AVE & E MOUND ST,15,35,50,39.956462,-82.989822,219
SUN,2,00004100,N HIGH ST & W NATIONWIDE,30,20,50,39.968238,-83.001898,220
SUN,24,00003906,S HAMILTON RD & E LIVING,16,34,50,39.944253,-82.877974,221
SUN,24,00007387,HAMILTON RD & E BROAD ST,33,17,50,39.975346,-82.874159,222
SUN,102,00008033,COTA TRANSIT TERMINAL BA,50,0,50,39.957242,-82.999122,223
SUN,2,00002271,E MAIN ST & S OHIO AVE,23,26,50,39.957809,-82.971067,224
SUN,31,00001288,N HIGH ST & W HUDSON ST,11,38,50,40.014087,-83.011282,225
SUN,1,00007538,W LANE AVE & NEIL AVE,35,14,49,40.006253,-83.014021,226
SUN,10,00002549,E BROAD ST & HAMILTON PA,30,19,49,39.964567,-82.980912,227
SUN,6,00001118,CLEVELAND AVE & E WEBER,23,26,49,40.02296,-82.964649,228
SUN,8,00007434,S 4TH ST & E CAPITAL ST,16,33,49,39.961922,-82.996031,229
SUN,2,00003856,N HIGH ST & FITZ HENRY B,6,42,49,40.066386,-83.01921,230
SUN,1,00001976,E LIVINGSTON AVE & S YEA,43,5,48,39.945385,-82.887127,231
SUN,1,00001979,E LIVINGSTON AVE & COURT,35,13,48,39.945981,-82.897682,232
SUN,1,00004100,N HIGH ST & W NATIONWIDE,31,17,48,39.968212,-83.001878,233
SUN,10,00002642,W BROAD ST & N OGDEN AVE,17,31,47,39.955168,-83.070974,234
SUN,34,00005969,MORSE RD & TAMARACK BLVD,41,6,47,40.060224,-82.970347,235
SUN,22,00002150,FREBIS AVE & STUDER AVE,15,32,47,39.934731,-82.966118,236
SUN,2,00002270,E MAIN ST & GILBERT ST,18,29,47,39.957871,-82.973718,237
SUN,2,00002351,E MAIN ST & S OHIO AVE,22,25,47,39.957906,-82.970575,238
SUN,2,00001251,S HIGH ST & W STATE ST,25,22,47,39.960434,-83.000253,239
SUN,102,00001288,N HIGH ST & W HUDSON ST,23,24,47,40.014089,-83.011313,240
SUN,10,00008030,E BROAD ST & GOLF CENTER,25,22,47,39.977323,-82.869817,241
SUN,10,00007518,E BROAD ST & N 4TH ST,23,23,46,39.962832,-82.996135,242
SUN,2,00001298,N HIGH ST & W 10TH AVE,27,19,46,39.993844,-83.006882,243
SUN,9,00004157,W LONG ST & N HIGH ST,20,26,46,39.964939,-83.001498,244
SUN,102,00006645,N HIGH ST & W RATHBONE A,21,25,46,40.063467,-83.019516,245
SUN,2,00002344,E MAIN ST & FAIRWOOD AVE,23,23,46,39.957561,-82.952675,246
SUN,6,00001089,CLEVELAND AVE & MOUNT VE,37,9,46,39.96958,-82.99044,247
SUN,9,00006901,WALMART GEORGESVILLE RD,23,23,46,39.928016,-83.118918,248
SUN,1,00001925,E LIVINGSTON AVE & KELTO,13,33,46,39.949115,-82.95904,249
SUN,10,00002523,E BROAD ST & ROBINWOOD A,36,10,45,39.973842,-82.896766,250
SUN,8,00003812,W 12TH AVE & N HIGH ST,25,20,45,39.996852,-83.00832,251
SUN,8,00005963,MORSE RD & TAMARACK BLVD,17,28,45,40.060507,-82.97139,252
SUN,1,00001251,S HIGH ST & W STATE ST,31,14,44,39.960418,-83.000211,253
SUN,10,00007406,W BROAD ST & N MURRAY HI,7,37,44,39.952393,-83.128328,254
SUN,10,00007514,E BROAD ST & N ASHBURTON,14,30,44,39.972262,-82.911694,255
SUN,33,00007910,2555 SUMMER DR,23,21,44,40.121513,-83.088531,256
SUN,32,00007076,TREMONT RD & RIDGECLIFF,25,19,44,40.022962,-83.059065,257
SUN,2,00001266,N HIGH ST & GRACELAND BL,39,5,44,40.06468,-83.01945,258
SUN,9,00001644,E MAIN ST & S PEARL ST,7,37,44,39.956211,-82.998415,259
SUN,121,00004092,N HIGH ST & E NATIONWIDE,18,25,43,39.968241,-83.001737,260
SUN,8,00003577,MORSE RD & KARL RD,13,30,43,40.060367,-82.97637,261
SUN,8,00001297,N HIGH ST & CHITTENDEN A,30,13,43,39.995921,-83.007334,262
SUN,10,00002643,W BROAD ST & N HAGUE AVE,16,27,43,39.955007,-83.074309,263
SUN,2,00004087,S HIGH ST & E STATE ST,15,27,43,39.959868,-83.000183,264
SUN,24,00003934,S HAMILTON RD & E LIVING,29,14,43,39.945176,-82.877698,265
SUN,6,00001251,S HIGH ST & W STATE ST,25,18,42,39.960396,-83.000243,266
SUN,121,00004085,S HIGH ST & E RICH ST,31,11,42,39.957226,-82.999631,267
SUN,10,00002527,E BROAD ST & N WEYANT AV,32,10,42,39.972805,-82.906623,268
SUN,10,00004142,E BROAD ST & PARSONS AVE,20,23,42,39.9644,-82.981007,269
SUN,1,00001947,E LIVINGSTON AVE & CUNAR,9,33,42,39.946092,-82.901894,270
SUN,1,00003957,N HIGH ST & E 18TH AVE,22,20,42,40.002887,-83.008698,271
SUN,34,00003577,MORSE RD & KARL RD,23,19,42,40.060417,-82.976495,272
SUN,2,00005983,N HIGH ST & E 9TH AVE,11,30,41,39.993605,-83.006742,273
SUN,8,00004625,E 11TH AVE & N PEARL ST,37,4,41,39.994735,-83.005928,274
SUN,102,00005910,N HIGH ST & E GAY ST,34,7,41,39.964402,-83.000994,275
SUN,152,00005208,N HIGH ST & OHIO CENTER,6,35,41,39.970241,-83.002255,276
SUN,10,00001467,W BROAD ST & OLD VILLAGE,2,39,41,39.952603,-83.124187,277
SUN,10,00002548,E BROAD ST & N 17TH ST,25,16,41,39.964951,-82.977588,278
SUN,2,00002322,E MAIN ST & ROBINWOOD AV,28,13,41,39.95611,-82.896322,279
SUN,7,00007456,S FRONT ST & W BROAD ST,9,32,41,39.961749,-83.002541,280
SUN,1,00001920,E LIVINGSTON AVE & S CHA,23,18,41,39.949666,-82.970369,281
SUN,1,00004025,E LIVINGSTON AVE & BRICE,40,0,40,39.942086,-82.830814,282
SUN,2,00006010,E MAIN ST & ROBINWOOD AV,8,32,40,39.956003,-82.896837,283
SUN,2,00001206,N HIGH ST & E NORTH BROA,11,29,40,40.031927,-83.015862,284
SUN,10,00004459,4765 W BROAD ST,35,5,40,39.952233,-83.127818,285
SUN,1,00007539,W LANE AVE & NEIL AVE,12,28,40,40.006234,-83.013899,286
SUN,10,00002635,W BROAD ST & LECHNER AVE,12,27,40,39.956021,-83.053575,287
SUN,34,00006647,2560 MORSE RD,6,34,40,40.059542,-82.951147,288
SUN,10,00002515,E BROAD ST & MIDCLIFF DR,21,19,40,39.976317,-82.873183,289
SUN,102,00001222,N HIGH ST & LELAND AVE,24,16,39,40.064055,-83.019331,290
SUN,121,00005208,N HIGH ST & OHIO CENTER,28,12,39,39.970238,-83.002202,291
SUN,1,00001954,E LIVINGSTON AVE & S HAM,14,25,39,39.944684,-82.876822,292
SUN,1,00001913,E LIVINGSTON AVE & KELTO,27,12,39,39.949233,-82.95987,293
SUN,11,00007256,WESTVIEW TURNAROUND,20,19,39,40.070041,-83.019593,294
SUN,1,00001930,E LIVINGSTON AVE & MEMOR,15,24,39,39.948492,-82.94678,295
SUN,5,00001525,W 5TH AVE & OLENTANGY RI,7,32,39,39.987938,-83.026422,296
SUN,4,00007456,S FRONT ST & W BROAD ST,27,12,39,39.961696,-83.0025,297
SUN,22,00003570,S OHIO AVE & E MAIN ST,30,9,39,39.957643,-82.970912,298
SUN,121,00001178,N HIGH ST & E RUSSELL ST,5,34,39,39.975787,-83.003132,299
SUN,7,00001797,E MOUND ST & S HIGH ST,22,17,39,39.955,-82.998853,300
SUN,6,00005875,CLEVELAND AVE & STATE RO,4,35,39,40.084657,-82.951007,301
SUN,10,00002547,E BROAD ST & N 20TH ST,24,15,39,39.965371,-82.974061,302
SUN,10,00002676,W BROAD ST & S SKIDMORE,22,17,39,39.9602,-83.016682,303
SUN,7,00001630,MOUNT VERNON AVE & N 20T,9,29,39,39.972063,-82.973584,304
SUN,6,00001104,CLEVELAND AVE & E 17TH A,15,23,39,40.000115,-82.975768,305
SUN,102,00004101,N HIGH ST & W LONG ST,5,34,38,39.965183,-83.001296,306
SUN,6,00001139,CLEVELAND AVE & E WEBER,22,16,38,40.022874,-82.964801,307
SUN,102,00004092,N HIGH ST & E NATIONWIDE,33,5,38,39.968306,-83.001724,308
SUN,1,00002009,E LIVINGSTON AVE & S OHI,19,19,38,39.949812,-82.971792,309
SUN,102,00001184,N HIGH ST & E 5TH AVE,17,21,38,39.987559,-83.005548,310
SUN,2,00002280,E MAIN ST & BULEN AVE,17,21,38,39.957435,-82.951352,311
SUN,10,00006013,W BROAD ST & OLD VILLAGE,35,3,38,39.952394,-83.124012,312
SUN,1,00004087,S HIGH ST & E STATE ST,12,26,38,39.959876,-83.000197,313
SUN,22,00003567,S OHIO AVE & E BROAD ST,32,6,38,39.9653,-82.970299,314
SUN,2,00004095,N HIGH ST & SPRUCE ST,21,17,38,39.972718,-83.002588,315
SUN,1,00003866,E LIVINGSTON AVE & BERKL,13,25,38,39.949,-82.956681,316
SUN,2,00001296,N HIGH ST & E 13TH AVE,18,20,38,39.998079,-83.007746,317
SUN,11,00007911,1755 ALUM CREEK DR,23,14,37,39.93102,-82.943341,318
SUN,2,00001189,N HIGH ST & E 13TH AVE,19,19,37,39.997741,-83.007556,319
SUN,10,00002501,E BROAD ST & ROBINWOOD A,5,32,37,39.973789,-82.896215,320
SUN,121,00006370,S HIGH ST & E FULTON ST,22,15,37,39.954199,-82.999025,321
SUN,1,00001914,E LIVINGSTON AVE & PARSO,20,17,37,39.952135,-82.982796,322
SUN,10,00002505,E BROAD ST & S YEARLING,6,31,37,39.974961,-82.884976,323
SUN,10,00002670,W BROAD ST & WEST PARK A,23,14,37,39.95817,-83.033526,324
SUN,121,00001251,S HIGH ST & W STATE ST,17,19,37,39.96045,-83.000298,325
SUN,2,00005208,N HIGH ST & OHIO CENTER,12,24,37,39.970205,-83.002203,326
SUN,3,00002953,HARRISBURG PIKE & W MOUN,14,23,37,39.944603,-83.036696,327
SUN,10,00002658,W BROAD ST & S BURGESS A,26,10,36,39.955157,-83.068802,328
SUN,2,00002272,E MAIN ST & S CHAMPION A,24,12,36,39.957768,-82.969021,329
SUN,22,00003553,S CHAMPION AVE & E LIVIN,17,20,36,39.949928,-82.970059,330
SUN,5,00004109,S HIGH ST & W MOUND ST,30,6,36,39.954166,-82.999149,331
SUN,4,00002109,FREBIS AVE & PARSONS AVE,15,21,36,39.935477,-82.983778,332
SUN,10,00002516,E BROAD ST & N HAMILTON,33,2,36,39.976003,-82.875998,333
SUN,10,00002477,E BROAD ST & S OHIO AVE,11,25,36,39.965636,-82.97048,334
SUN,2,00001222,N HIGH ST & LELAND AVE,2,34,36,40.063337,-83.019372,335
SUN,1,00004453,OLENTANGY RIVER RD & RIV,11,25,36,40.024302,-83.026037,336
SUN,10,00002640,W BROAD ST & N EUREKA AV,11,25,36,39.95541,-83.065874,337
SUN,23,00001983,E LIVINGSTON AVE & BARNE,20,16,36,39.946447,-82.906066,338
SUN,8,00002825,PARSONS AVE & FREBIS AVE,14,22,36,39.935395,-82.983626,339
SUN,22,00007886,AMAZON DR,8,27,35,39.8461,-82.929106,340
SUN,1,00004928,E LIVINGSTON AVE & ALUM,21,15,35,39.948551,-82.945941,341
SUN,121,00004100,N HIGH ST & W NATIONWIDE,27,8,35,39.968228,-83.00189,342
SUN,1,00001948,E LIVINGSTON AVE & COURT,12,23,35,39.9458,-82.896431,343
SUN,1,00001302,N HIGH ST & W 5TH AVE,19,16,35,39.986757,-83.005499,344
SUN,10,00002476,E BROAD ST & HOFFMAN AVE,14,21,35,39.965223,-82.974,345
SUN,10,00002542,E BROAD ST & PARKWOOD AV,21,14,35,39.966938,-82.960331,346
SUN,6,00002137,E NAGHTEN ST & N 6TH ST,9,26,35,39.968684,-82.993253,347
SUN,1,00001184,N HIGH ST & E 5TH AVE,15,20,35,39.987527,-83.005553,348
SUN,10,00004136,E BROAD ST & S 4TH ST,22,13,35,39.962609,-82.996395,349
SUN,4,00004228,W MOUND ST & S HIGH ST,5,29,35,39.954773,-82.999758,350
SUN,7,00004169,E SPRING ST & N GRANT AV,23,11,35,39.967208,-82.992337,351
SUN,5,00001611,W 5TH AVE & EDGEHILL RD,30,5,35,39.987986,-83.028908,352
SUN,1,00001951,E LIVINGSTON AVE & S YEA,5,30,35,39.945316,-82.887881,353
SUN,2,00001290,N HIGH ST & W MAYNARD AV,28,7,35,40.011403,-83.010583,354
SUN,10,00002629,W BROAD ST & CHICAGO AVE,11,23,35,39.958243,-83.034009,355
SUN,4,00004109,S HIGH ST & W MOUND ST,30,4,35,39.954169,-82.999145,356
SUN,1,00006945,OLENTANGY RIVER RD & RIV,29,6,35,40.024353,-83.026218,357
SUN,102,00001206,N HIGH ST & E NORTH BROA,17,17,35,40.031909,-83.015849,358
SUN,102,00001188,N HIGH ST & CHITTENDEN A,21,14,34,39.996146,-83.007233,359
SUN,8,00005292,3755 GREAT SOUTHERN SVC,7,28,34,39.88567,-83.002039,360
SUN,2,00002277,E MAIN ST & KELTON AVE,12,23,34,39.957584,-82.958848,361
SUN,1,00005983,N HIGH ST & E 9TH AVE,6,28,34,39.99356,-83.006737,362
SUN,32,00003669,W NORTH BROADWAY & N HIG,11,23,34,40.031672,-83.016608,363
SUN,121,00007257,S HIGH ST & W MAIN ST,12,22,34,39.955668,-82.999453,364
SUN,1,00002008,E LIVINGSTON AVE & S CHA,17,17,34,39.94974,-82.970328,365
SUN,10,00002496,E BROAD ST & S NAPOLEON,4,30,34,39.972758,-82.905995,366
SUN,22,00003556,S CHAMPION AVE & E MAIN,13,21,34,39.957611,-82.969453,367
SUN,5,00003230,REFUGEE RD & TENNYSON BL,32,2,34,39.915214,-82.873662,368
SUN,34,00006539,MORSE CROSSING & EASTON,4,30,34,40.050822,-82.920076,369
SUN,1,00007537,N HIGH ST & W LANE AVE,17,16,34,40.005633,-83.009304,370
SUN,8,00001702,NEIL AVE & W 11TH AVE,23,11,34,39.995342,-83.014701,371
SUN,5,00002257,S HIGH ST & E WHITTIER S,8,25,33,39.944154,-82.997009,372
SUN,6,00001166,CLEVELAND AVE & MOUNT VE,9,24,33,39.969477,-82.990697,373
SUN,6,00001123,CLEVELAND AVE & OAKLAND,8,25,33,40.031546,-82.963936,374
SUN,1,00007536,W LANE AVE & N HIGH ST,13,20,33,40.00604,-83.010296,375
SUN,1,00001980,E LIVINGSTON AVE & RAND,28,5,33,39.946209,-82.901897,376
SUN,10,00002546,E BROAD ST & N OHIO AVE,17,16,33,39.965783,-82.970627,377
SUN,1,00007542,W LANE AVE & TUTTLE PARK,10,23,33,40.006273,-83.017013,378
SUN,1,00001999,E LIVINGSTON AVE & FAIRW,21,12,33,39.948921,-82.953427,379
SUN,25,00006955,GENDER RD TOWN CENTER 1,12,21,33,39.909997,-82.822664,380
SUN,1,00005216,RESLER DR & SAWMILL RD,15,18,32,40.067851,-83.091573,382
SUN,2,00004106,S HIGH ST & W TOWN ST,16,16,32,39.958135,-82.999848,382
SUN,2,00002296,E MAIN ST & S WEYANT AVE,6,26,32,39.95635,-82.908666,383
SUN,8,00004004,KARL RD & STATE ROUTE 16,30,3,32,40.085959,-82.975516,384
SUN,2,00001182,N HIGH ST & E 2ND AVE,21,11,32,39.983331,-83.004717,385
SUN,6,00002694,SULLIVANT AVE & S CENTRA,16,16,32,39.950525,-83.036363,386
SUN,7,00001637,N NELSON RD & MARGARET A,20,12,32,39.984828,-82.941664,387
SUN,1,00002002,E LIVINGSTON AVE & LILLE,19,13,32,39.949135,-82.957871,388
SUN,31,00007784,E HUDSON ST & CLEVELAND,16,16,32,40.013726,-82.967919,389
SUN,32,00007311,3800 VETERANS MEMORIAL D,16,16,32,40.029853,-83.16751,390
SUN,34,00006495,MORSE RD & NORTHTOWNE BL,14,18,32,40.060155,-82.962708,391
SUN,5,00001612,W 5TH AVE & OLENTANGY RI,28,4,32,39.987828,-83.025847,392
SUN,34,00006701,STELZER RD AT SAMS CLUB,31,1,32,40.059369,-82.91041,393
SUN,32,00003674,W NORTH BROADWAY & N HIG,21,10,32,40.031572,-83.016765,394
SUN,10,00002663,W BROAD ST & WHITETHORNE,19,12,31,39.955702,-83.05699,395
SUN,12,00004157,W LONG ST & N HIGH ST,7,25,31,39.96484,-83.001544,396
SUN,5,00006415,S FRONT ST & W MAIN ST,10,22,31,39.955285,-83.001034,397
SUN,2,00001179,N HIGH ST & BUTTLES AVE,23,8,31,39.977553,-83.003589,398
SUN,34,00003960,MORSE RD & MAIZE RD,24,7,31,40.061037,-82.986737,399
SUN,23,00006517,EASTON WAY & MORSE CROSS,1,31,31,40.048384,-82.919464,400
SUN,10,00002545,E BROAD ST & GOVERNOR PL,19,12,31,39.965961,-82.969107,401
SUN,3,00001557,TREMONT RD & LANGHAM RD,14,17,31,40.020666,-83.06115,402
SUN,121,00004087,S HIGH ST & E STATE ST,19,12,31,39.95982,-83.000173,403
SUN,10,00001167,E BROAD ST & S DOUGLAS S,9,22,31,39.964761,-82.97793,404
SUN,5,00006905,ALUM CREEK DR & WINSLOW,25,6,31,39.925328,-82.935392,405
SUN,12,00003142,W SPRING ST & N WALL ST,26,4,31,39.966082,-83.002467,406
SUN,10,00002626,W BROAD ST & RODGERS AVE,10,21,31,39.959079,-83.027286,407
SUN,2,00001224,5220 N HIGH ST,1,29,30,40.068644,-83.019135,408
SUN,121,00004106,S HIGH ST & W TOWN ST,11,19,30,39.958162,-82.999877,409
SUN,10,00002662,W BROAD ST & S HIGHLAND,21,9,30,39.955541,-83.060661,410
SUN,1,00003218,E LIVINGSTON AVE & LONSD,27,3,30,39.943277,-82.849875,411
SUN,10,00002664,W BROAD ST & LECHNER AVE,20,11,30,39.955914,-83.053093,412
SUN,2,00002279,E MAIN ST & SEYMOUR AVE,14,17,30,39.957502,-82.954622,413
SUN,10,00002628,W BROAD ST & N YALE AVE,12,19,30,39.958525,-83.031691,414
SUN,2,00001196,N HIGH ST & E BLAKE AVE,7,24,30,40.011628,-83.010538,415
SUN,5,00007338,N FRONT ST & W LONG ST,13,18,30,39.965471,-83.003083,416
SUN,10,00002639,W BROAD ST & N OAKLEY AV,9,21,30,39.955556,-83.062742,417
SUN,10,00002540,E BROAD ST & N NELSON RD,16,14,30,39.967954,-82.951202,418
SUN,31,00007785,E HUDSON ST & CLEVELAND,13,17,30,40.01366,-82.967707,419
SUN,6,00001148,CLEVELAND AVE & E 22ND A,17,13,30,40.004518,-82.973076,420
SUN,1,00005208,N HIGH ST & OHIO CENTER,15,15,30,39.97021,-83.002177,421
SUN,6,00004087,S HIGH ST & E STATE ST,18,12,30,39.959854,-83.000162,422
SUN,10,00002673,W BROAD ST & HAWKES AVE,20,10,30,39.95907,-83.026034,423
SUN,22,00007922,1333 FIELDS AVE,12,18,30,39.990837,-82.991664,424
SUN,1,00002013,E LIVINGSTON AVE & PARSO,11,18,29,39.952289,-82.983223,425
SUN,4,00002157,FREBIS AVE & PARSONS AVE,15,14,29,39.935583,-82.983392,426
SUN,6,00002726,SULLIVANT AVE & S HAGUE,22,8,29,39.943687,-83.072855,427
SUN,2,00006645,N HIGH ST & W RATHBONE A,28,1,29,40.062831,-83.01957,428
SUN,2,00002357,E MAIN ST & S WASHINGTON,16,13,29,39.95779,-82.985643,429
SUN,10,00004288,W BROAD ST & S SOUTHAMPT,23,7,29,39.954212,-83.088038,430
SUN,5,00006002,W 5TH AVE & EDGEHILL RD,4,25,29,39.988086,-83.029474,431
SUN,32,00001132,3401 CLEVELAND AVE,15,14,29,40.036444,-82.96298,432
SUN,32,00004530,CLEVELAND AVE & INNIS RD,17,12,29,40.037104,-82.962461,433
SUN,1,00001296,N HIGH ST & E 13TH AVE,9,19,29,39.998044,-83.007745,434
SUN,6,00001106,CLEVELAND AVE & E 19TH A,13,15,29,40.002481,-82.974257,435
SUN,1,00001189,N HIGH ST & E 13TH AVE,19,10,29,39.997732,-83.007557,436
SUN,5,00001531,W 5TH AVE & NORTHWEST BL,5,24,29,39.988637,-83.040535,437
SUN,23,00001979,E LIVINGSTON AVE & COURT,14,14,29,39.945818,-82.897794,438
SUN,3,00004114,S 3RD ST & E BROAD ST,21,8,29,39.962093,-82.99794,439
SUN,7,00001360,N NELSON RD & MARGARET A,11,17,28,39.984818,-82.941602,440
SUN,8,00002791,PARSONS AVE & FREBIS AVE,20,9,28,39.935303,-82.983748,441
SUN,141,00006195,MCKINLEY MONUMENT,24,5,28,39.961248,-83.000281,442
SUN,4,00007257,S HIGH ST & W MAIN ST,23,6,28,39.955656,-82.9995,443
SUN,1,00001918,E LIVINGSTON AVE & S 22N,9,19,28,39.949781,-82.972578,444
SUN,6,00004201,CLEVELAND AVE & ELMORE A,9,19,28,40.040163,-82.961221,445
SUN,6,00001155,CLEVELAND AVE & E 11TH A,16,13,28,39.993914,-82.981551,446
SUN,5,00006325,W NATIONWIDE BLVD & N FR,13,15,28,39.968775,-83.002969,447
SUN,10,00002504,4251 E BROAD ST,5,24,28,39.974629,-82.888147,448
SUN,23,00004349,STELZER RD & N JAMES RD,5,23,28,39.98026,-82.913154,449
SUN,10,00002519,E BROAD ST & N YEARLING,23,5,28,39.975002,-82.885634,450
SUN,2,00006355,E MAIN ST & OAK VALLEY R,13,15,28,39.955551,-82.787377,451
SUN,6,00001103,CLEVELAND AVE & E 15TH A,9,19,28,39.998514,-82.976865,452
SUN,121,00001308,N HIGH ST & W RUSSELL ST,24,4,28,39.975292,-83.003112,453
SUN,102,00001297,N HIGH ST & CHITTENDEN A,15,12,28,39.995893,-83.00733,454
SUN,3,00001797,E MOUND ST & S HIGH ST,26,2,28,39.9549,-82.998886,455
SUN,3,00007434,S 4TH ST & E CAPITAL ST,6,22,28,39.961916,-82.996036,456
SUN,34,00005964,MORSE RD & WALFORD ST,15,12,28,40.059878,-82.961255,457
SUN,102,00001192,N HIGH ST & W WOODRUFF A,19,9,28,40.003614,-83.008703,458
SUN,34,00006663,4180 STELZER RD,1,27,28,40.059609,-82.910168,459
SUN,10,00002478,E BROAD ST & S CHAMPION,19,9,28,39.965851,-82.968655,460
SUN,22,00003573,S OHIO AVE & E LIVINGSTO,16,11,27,39.950001,-82.971498,461
SUN,33,00005216,RESLER DR & SAWMILL RD,14,13,27,40.067889,-83.091502,462
SUN,24,00003931,S HAMILTON RD & KINGSLAN,24,3,27,39.926143,-82.879558,463
SUN,10,00004153,W BROAD ST & ANSON ST,10,18,27,39.960699,-83.013624,464
SUN,1,00001996,E LIVINGSTON AVE & MAYFI,16,11,27,39.948288,-82.94102,465
SUN,33,00007108,565 METRO PL S,15,12,27,40.095089,-83.132462,466
SUN,1,00004106,S HIGH ST & W TOWN ST,17,10,27,39.95812,-82.999842,467
SUN,1,00002005,E LIVINGSTON AVE & LOCKB,19,8,27,39.949381,-82.962841,468
SUN,22,00003559,GOVERNOR PL & E BROAD ST,7,20,27,39.966494,-82.968564,469
SUN,8,00004878,MCGUFFEY RD & E HUDSON S,17,10,27,40.01385,-82.981477,470
SUN,102,00001302,N HIGH ST & W 5TH AVE,7,20,27,39.986803,-83.005515,471
SUN,2,00001281,N HIGH ST & W NORTH BROA,23,4,27,40.030906,-83.015765,472
SUN,1,00003188,E LIVINGSTON AVE & LONSD,3,24,27,39.943188,-82.850311,473
SUN,10,00002671,W BROAD ST & S GLENWOOD,18,9,27,39.958575,-83.030159,474
SUN,8,00004624,4630 TAMARACK BLVD,17,10,27,40.062155,-82.970898,475
SUN,2,00001273,N HIGH ST & W HENDERSON,21,6,27,40.05164,-83.020182,476
SUN,2,00003706,E MAIN ST & BRICE RD,19,7,27,39.954877,-82.829614,477
SUN,10,00002481,E BROAD ST & FRANKLIN PK,13,14,27,39.966804,-82.960158,478
SUN,6,00002709,SULLIVANT AVE & S HAGUE,9,18,27,39.943757,-83.073447,479
SUN,121,00001179,N HIGH ST & BUTTLES AVE,7,19,26,39.977569,-83.003579,480
SUN,1,00004095,N HIGH ST & SPRUCE ST,11,15,26,39.972746,-83.002556,481
SUN,152,00007511,COTA TRANSIT TERMINAL BA,0,26,26,39.956346,-82.998924,482
SUN,2,00001285,N HIGH ST & CRESTVIEW RD,21,5,26,40.022583,-83.013575,483
SUN,2,00002350,E MAIN ST & S CHAMPION A,12,14,26,39.957879,-82.969271,484
SUN,10,00001171,E BROAD ST & CARDINAL PA,2,24,26,39.977596,-82.860343,485
SUN,6,00001150,CLEVELAND AVE & E 18TH A,14,12,26,40.001404,-82.975077,486
SUN,102,00004100,N HIGH ST & W NATIONWIDE,5,22,26,39.968258,-83.001906,487
SUN,31,00001192,N HIGH ST & W WOODRUFF A,11,15,26,40.003571,-83.008703,488
SUN,23,00005702,750 STELZER RD,8,18,26,39.987069,-82.913965,489
SUN,31,00003818,KING AVE & OLENTANGY RIV,3,23,26,39.990929,-83.026629,490
SUN,5,00002259,S HIGH ST & E SYCAMORE S,11,15,26,39.948721,-82.997969,491
SUN,6,00004106,S HIGH ST & W TOWN ST,15,11,26,39.958114,-82.999835,492
SUN,8,00003349,KARL RD & HEMPWOOD DR,1,25,26,40.084446,-82.975456,493
SUN,33,00006653,HIGHFIELD DR & BROAD MEA,13,13,26,40.073791,-83.027688,494
SUN,2,00001291,N HIGH ST & W OAKLAND AV,21,5,26,40.009256,-83.010015,495
SUN,34,00006870,EASTON WAY & EASTON SQUA,2,24,26,40.048051,-82.915639,496
SUN,10,00004920,W BROAD ST & N SYLVAN AV,6,20,26,39.954371,-83.087513,497
SUN,2,00002268,E MAIN ST & ALLEN AVE,9,17,25,39.957999,-82.979653,498
SUN,5,00003243,REFUGEE RD & TENNYSON BL,3,23,25,39.91511,-82.873777,499
SUN,5,00002777,E WHITTIER ST & PARSONS,17,9,25,39.944209,-82.982789,500
SUN,1,00001922,E LIVINGSTON AVE & STUDE,6,19,25,39.949359,-82.964126,501
SUN,11,00003142,W SPRING ST & N WALL ST,11,14,25,39.966142,-83.002514,502
SUN,24,00003937,S HAMILTON RD & WRIGHT A,14,11,25,39.957693,-82.876532,503
SUN,5,00006906,ALUM CREEK DR & WINSLOW,6,19,25,39.925479,-82.935602,504
SUN,33,00001273,N HIGH ST & W HENDERSON,22,3,25,40.051668,-83.020235,505
SUN,102,00003957,N HIGH ST & E 18TH AVE,10,14,25,40.002925,-83.0087,506
SUN,7,00004160,E LONG ST & CLEVELAND AV,19,5,25,39.966124,-82.990742,507
SUN,2,00002303,E MAIN ST & S YEARLING R,3,21,25,39.955715,-82.886665,508
SUN,33,00005134,RESLER DR & SAWMILL RD,15,10,25,40.067992,-83.09164,509
SUN,1,00006091,E LIVINGSTON AVE & MAYFI,9,16,24,39.948178,-82.941161,510
SUN,10,00002528,E BROAD ST & N HAMPTON R,16,9,24,39.97251,-82.909396,511
SUN,5,00002202,S HIGH ST & W SYCAMORE S,16,9,24,39.948726,-82.998101,512
SUN,33,00001217,N HIGH ST & E SCHREYER P,3,21,24,40.052383,-83.020051,513
SUN,23,00006870,EASTON WAY & EASTON SQUA,1,24,24,40.048036,-82.915637,514
SUN,7,00007540,S GRANT AVE & E MOUND ST,12,12,24,39.956392,-82.989924,515
SUN,6,00001109,CLEVELAND AVE & E 25TH A,11,13,24,40.007028,-82.971415,516
SUN,31,00001189,N HIGH ST & E 13TH AVE,13,12,24,39.997697,-83.007597,517
SUN,3,00004882,HARRISBURG PIKE & BROWN,12,12,24,39.944278,-83.036784,518
SUN,5,00003416,REFUGEE RD & CITIZENS PL,20,5,24,39.915414,-82.877177,519
SUN,2,00001307,N HIGH ST & BUTTLES AVE,5,19,24,39.976953,-83.003463,520
SUN,152,00004094,N HIGH ST & OHIO CENTER,24,0,24,39.969852,-83.00213,521
SUN,121,00007348,E 2ND AVE & N HIGH ST,22,3,24,39.982422,-83.004161,522
SUN,34,00006871,EASTON WAY & EASTON SQUA,22,2,24,40.04822,-82.915353,523
SUN,6,00003134,CLEVELAND AVE & BELCHER,20,4,24,40.05478,-82.953474,524
SUN,2,00002347,E MAIN ST & MILLER AVE,13,11,24,39.957724,-82.960602,525
SUN,34,00005965,MORSE RD & WESTERVILLE R,15,9,24,40.058952,-82.938013,526
SUN,102,00004918,CROSSWOODS PARK AND RIDE,14,10,24,40.116822,-83.006447,527
SUN,10,00004573,W BROAD ST & WESTLAND MA,16,8,24,39.952802,-83.11492,528
SUN,2,00002331,E MAIN ST & EASTMOOR BLV,18,6,24,39.956753,-82.91858,529
SUN,1,00002292,EASTGREEN BLVD & OFFICEV,6,18,24,39.93846,-82.829233,530
SUN,11,00004157,W LONG ST & N HIGH ST,15,9,24,39.964876,-83.001512,531
SUN,6,00003450,MOUNT VERNON AVE & N GRA,13,10,24,39.969365,-82.992632,532
SUN,102,00001262,N HIGH ST & BROADMEADOWS,19,5,23,40.073266,-83.019005,533
SUN,1,00001300,N HIGH ST & KING AVE,9,15,23,39.990445,-83.006231,534
SUN,5,00002773,E WHITTIER ST & S OHIO A,18,5,23,39.943645,-82.97174,535
SUN,6,00004017,CLEVELAND AVE & REPUBLIC,12,11,23,40.015604,-82.966253,536
SUN,5,00002748,E WHITTIER ST & S PEARL,17,7,23,39.944014,-82.996214,537
SUN,2,00002337,E MAIN ST & S CASSADY AV,11,12,23,39.957129,-82.933815,538
SUN,2,00003515,E MAIN ST & MCNAUGHTEN R,4,20,23,39.954639,-82.837871,539
SUN,2,00001283,N HIGH ST & W LAKEVIEW A,18,5,23,40.027293,-83.014813,540
SUN,102,00002901,VANTAGE DR & RED ROOF IN,3,20,23,40.116113,-83.014707,541
SUN,10,00004415,4244 E BROAD ST,22,2,23,39.974744,-82.888117,542
SUN,6,00001108,CLEVELAND AVE & E 23RD A,8,15,23,40.005654,-82.972258,543
SUN,6,00001140,CLEVELAND AVE & ABERDEEN,15,8,23,40.020369,-82.964986,544
SUN,34,00005968,1700 MORSE RD,10,13,23,40.060579,-82.974725,545
SUN,23,00004902,COURTRIGHT RD & PETZINGE,21,2,23,39.927009,-82.898554,546
SUN,34,00003856,N HIGH ST & FITZ HENRY B,1,21,23,40.066412,-83.019217,547
SUN,5,00002754,E WHITTIER ST & PARSONS,10,13,23,39.94417,-82.983266,548
SUN,1,00002012,E LIVINGSTON AVE & ANN S,12,10,23,39.951754,-82.980599,549
SUN,10,00002657,W BROAD ST & S WARREN AV,16,6,23,39.955041,-83.071234,550
SUN,2,00002319,E MAIN ST & S YEARLING R,19,4,23,39.955823,-82.886124,551
SUN,10,00002482,E BROAD ST & WOODLAND AV,9,13,22,39.967054,-82.957911,552
SUN,152,00007984,COTA TRANSIT TERMINAL BA,22,0,22,39.956594,-82.999754,553
SUN,10,00002637,W BROAD ST & MIDLAND AVE,5,17,22,39.955792,-83.057765,554
SUN,2,00001303,N HIGH ST & W 4TH AVE,16,7,22,39.984986,-83.005105,555
SUN,2,00001178,N HIGH ST & E RUSSELL ST,12,10,22,39.975779,-83.003152,556
SUN,4,00001914,E LIVINGSTON AVE & PARSO,18,5,22,39.95207,-82.982865,557
SUN,2,00001203,N HIGH ST & E PACEMONT R,8,14,22,40.026542,-83.014451,558
SUN,7,00001627,MOUNT VERNON AVE & N GAR,4,18,22,39.970947,-82.979365,559
SUN,23,00001946,E LIVINGSTON AVE & BARNE,9,13,22,39.946334,-82.906088,560
SUN,6,00003139,CLEVELAND AVE & ELMORE A,10,13,22,40.041304,-82.960879,561
SUN,8,00002254,S HIGH ST & E MITHOFF ST,18,4,22,39.938514,-82.99608,562
SUN,23,00001947,E LIVINGSTON AVE & CUNAR,6,16,22,39.946086,-82.901888,563
SUN,8,00002257,S HIGH ST & E WHITTIER S,9,13,22,39.944208,-82.997088,564
SUN,4,00002013,E LIVINGSTON AVE & PARSO,5,17,22,39.952227,-82.983378,565
SUN,24,00003908,S HAMILTON RD & KIMBERLY,2,20,22,39.926143,-82.879726,566
SUN,31,00001702,NEIL AVE & W 11TH AVE,12,10,22,39.995315,-83.014708,567
SUN,8,00001586,S 4TH ST & E TOWN ST,9,13,22,39.958944,-82.995473,568
SUN,8,00006041,N 4TH ST & E GAY ST,8,14,22,39.963785,-82.996437,569
SUN,10,00006175,E BROAD ST & S HAMPTON R,5,17,22,39.972342,-82.909872,570
SUN,121,00001305,N HIGH ST & PRICE AVE,21,1,22,39.980362,-83.004255,571
SUN,6,00004963,SULLIVANT AVE & WEDGEWOO,15,7,22,39.942478,-83.097071,572
SUN,1,00001298,N HIGH ST & W 10TH AVE,15,7,22,39.993807,-83.006866,573
SUN,10,00005805,E BROAD ST & FRANKLIN PA,9,13,22,39.96743,-82.954505,574
SUN,6,00001100,CLEVELAND AVE & E 11TH A,4,17,22,39.993476,-82.981884,575
SUN,8,00002207,S HIGH ST & GREENLAWN AV,5,17,22,39.939181,-82.996303,576
SUN,7,00004349,STELZER RD & N JAMES RD,16,6,22,39.980192,-82.913316,577
SUN,2,00002287,E MAIN ST & EUCLAIRE AVE,9,12,22,39.957037,-82.933569,578
SUN,2,00001201,N HIGH ST & E KELSO RD,5,16,22,40.021561,-83.013145,579
SUN,6,00003138,CLEVELAND AVE & LAMONT A,17,4,22,40.042934,-82.95996,580
SUN,1,00001928,E LIVINGSTON AVE & BULEN,9,13,22,39.948748,-82.951658,581
SUN,23,00007604,COURTRIGHT RD & E LIVING,12,9,22,39.945389,-82.897157,582
SUN,23,00005369,STELZER RD & E 6TH AVE,13,9,22,39.985806,-82.914182,583
SUN,2,00001284,N HIGH ST & W WEBER RD,15,6,21,40.024708,-83.014133,584
SUN,102,00001263,N HIGH ST & W KANAWHA AV,14,7,21,40.070352,-83.019155,585
SUN,2,00003660,E MAIN ST & ENFIELD RD,8,13,21,39.956686,-82.920367,586
SUN,121,00001307,N HIGH ST & BUTTLES AVE,17,5,21,39.976922,-83.003438,587
SUN,6,00002739,SULLIVANT AVE & S GUILFO,8,13,21,39.950261,-83.037371,588
SUN,6,00004682,CLEVELAND AVE & E 13TH A,11,10,21,39.996691,-82.978643,589
SUN,10,00002678,429 W BROAD ST,13,8,21,39.960745,-83.012365,590
SUN,8,00002259,S HIGH ST & E SYCAMORE S,13,8,21,39.948737,-82.997972,591
SUN,5,00006398,S FRONT ST & W TOWN ST,8,13,21,39.958943,-83.001784,592
SUN,1,00002018,E FULTON ST & S HIGH ST,1,20,21,39.953604,-82.998531,593
SUN,1,00001942,E LIVINGSTON AVE & S KEL,5,16,21,39.946943,-82.917407,594
SUN,2,00002326,E MAIN ST & S WEYANT AVE,16,5,21,39.956459,-82.908475,595
SUN,24,00007979,298 HAMILTON RD,5,16,21,40.011154,-82.86706,596
SUN,31,00003803,KING AVE & DELASHMUT AVE,20,1,21,39.990986,-83.029348,597
SUN,23,00005982,N JAMES RD & ALLEGHENY A,17,4,21,39.9797,-82.913231,598
SUN,141,00005719,RIVERSIDE DR & NOTTINGHA,18,3,21,40.026351,-83.091108,599
SUN,4,00004123,N FRONT ST & W BROAD ST,7,14,21,39.962984,-83.002603,600
SUN,23,00006871,EASTON WAY & EASTON SQUA,19,2,21,40.048216,-82.915329,601
SUN,6,00001117,CLEVELAND AVE & LINDEN P,8,13,20,40.020111,-82.964878,602
SUN,34,00006289,MORSE CROSSING & MORSE R,2,18,20,40.056586,-82.918534,603
SUN,31,00003812,W 12TH AVE & N HIGH ST,12,9,20,39.996941,-83.008317,604
SUN,2,00004096,N HIGH ST & SWAN ST,3,17,20,39.973191,-83.002689,605
SUN,9,00007513,W NATIONWIDE BLVD & N HI,2,18,20,39.969053,-83.002362,606
SUN,6,00006511,SULLIVANT AVE & CLARENDO,18,2,20,39.946369,-83.058155,607
SUN,10,00006385,E BROAD ST & N WASHINGTO,13,8,20,39.963823,-82.987468,608
SUN,6,00003085,CLEVELAND AVE & BELCHER,4,17,20,40.055534,-82.953246,609
SUN,6,00007306,SULLIVANT AVE & S WHEATL,3,18,20,39.945878,-83.061162,610
SUN,10,00002638,W BROAD ST & S HIGHLAND,6,15,20,39.955656,-83.06066,611
SUN,31,00006870,EASTON WAY & EASTON SQUA,2,18,20,40.048036,-82.91564,612
SUN,10,00004140,E BROAD ST & S WASHINGTO,7,13,20,39.96366,-82.987379,613
SUN,3,00004726,2071 STRINGTOWN RD,2,18,20,39.878396,-83.057991,614
SUN,6,00007325,SULLIVANT AVE & S WHEATL,16,4,20,39.945757,-83.061418,615
SUN,6,00001151,CLEVELAND AVE & E 17TH A,11,9,20,39.999912,-82.976052,616
SUN,1,00001956,E LIVINGSTON AVE & SHADY,8,12,20,39.944391,-82.871658,617
SUN,6,00002705,SULLIVANT AVE & S WAYNE,2,18,20,39.945457,-83.063403,618
SUN,6,00002687,SULLIVANT AVE & MARTIN A,9,11,20,39.953033,-83.022859,619
SUN,1,00001295,N HIGH ST & E 15TH AVE,4,16,20,39.999652,-83.00803,620
SUN,2,00001347,E MAIN ST & S 5TH ST,10,10,20,39.956934,-82.992276,621
SUN,2,00001186,N HIGH ST & EUCLID AVE,9,11,20,39.991308,-83.006315,622
SUN,8,00001811,MCGUFFEY RD & E WEBER RD,15,5,20,40.023667,-82.981474,623
SUN,6,00001141,CLEVELAND AVE & GENESSEE,12,8,20,40.019184,-82.965089,624
SUN,2,00002267,E MAIN ST & S WASHINGTON,13,7,20,39.95763,-82.986091,625
SUN,7,00001634,MOUNT VERNON AVE & BURT,4,16,20,39.973838,-82.963445,626
SUN,7,00001662,E 5TH AVE & N CASSADY AV,13,7,20,39.985159,-82.931291,627
SUN,34,00005959,MORSE RD & MORSE CROSSIN,17,3,20,40.057955,-82.919182,628
SUN,9,00002377,W MOUND ST & CENTRAL POI,11,9,20,39.945169,-83.038223,629
SUN,10,00005806,E BROAD ST & BRUNSON AVE,14,6,20,39.96768,-82.953638,630
SUN,6,00004956,SULLIVANT AVE & WEDGEWOO,6,14,20,39.942522,-83.098072,631
SUN,23,00004729,COURTRIGHT RD & KIMBERLY,16,3,20,39.921569,-82.896841,632
SUN,5,00002770,E WHITTIER ST & LINWOOD,17,2,20,39.943348,-82.966087,633
SUN,8,00002822,PARSONS AVE & E MORRILL,13,7,20,39.929605,-82.984026,634
SUN,21,00005741,TUTTLE MALL AT MACYS,11,8,20,40.074152,-83.132765,635
SUN,6,00001147,CLEVELAND AVE & E 24TH A,12,7,19,40.006441,-82.971883,636
SUN,5,00001532,W 5TH AVE & GRANDVIEW AV,3,17,19,39.988822,-83.044239,637
SUN,10,00001170,E BROAD ST & HOLIDAY LAN,7,13,19,39.975576,-82.879081,638
SUN,4,00002150,FREBIS AVE & STUDER AVE,12,7,19,39.934673,-82.96582,639
SUN,1,00008009,W NORTH BROADWAY & OLENT,7,12,19,40.029956,-83.032333,640
SUN,2,00001183,N HIGH ST & E 4TH AVE,7,12,19,39.98519,-83.005062,641
SUN,7,00001675,MOUNT VERNON AVE & N CHA,11,9,19,39.973039,-82.968475,642
SUN,121,00004109,S HIGH ST & W MOUND ST,10,9,19,39.954164,-82.999164,643
SUN,2,00006372,N HIGH ST & E ROYAL FORE,1,19,19,40.060881,-83.019508,644
SUN,2,00001280,N HIGH ST & W KENWORTH R,10,9,19,40.032899,-83.016288,645
SUN,102,00001281,N HIGH ST & W NORTH BROA,7,12,19,40.030858,-83.015761,646
SUN,34,00006643,MORSE CROSSING & EASTON,18,2,19,40.049524,-82.919849,647
SUN,7,00005383,CMH AIRPORT BAGGAGE CLAI,4,16,19,39.999577,-82.885046,648
SUN,8,00004629,E 17TH AVE & CLEVELAND A,9,10,19,40.000276,-82.976043,649
SUN,5,00006050,1900 ALUM CREEK DR,16,3,19,39.930379,-82.940176,650
SUN,10,00002483,E BROAD ST & S NELSON RD,9,10,19,39.968035,-82.949154,651
SUN,8,00001732,MCGUFFEY RD & E HUDSON S,8,11,19,40.014826,-82.98132,652
SUN,22,00001297,N HIGH ST & CHITTENDEN A,13,7,19,39.995931,-83.00736,653
SUN,1,00007175,E LIVINGSTON AVE & CARPE,14,5,19,39.950033,-82.974942,654
SUN,8,00002214,S 4TH ST & E WOODROW AVE,5,14,19,39.927728,-82.993204,655
SUN,10,00002513,E BROAD ST & MT CARMEL H,15,4,19,39.978519,-82.844788,656
SUN,31,00007346,E HUDSON ST & MCGUFFEY R,13,6,19,40.014335,-82.981772,657
SUN,6,00001102,CLEVELAND AVE & WINDSOR,6,13,19,39.997148,-82.978056,658
SUN,34,00003959,MORSE RD & SANDY LANE RD,10,9,19,40.06131,-82.992855,659
SUN,2,00001308,N HIGH ST & W RUSSELL ST,6,13,19,39.975328,-83.003131,660
SUN,10,00001172,E BROAD ST & CARDINAL PA,18,1,19,39.977768,-82.86,661
SUN,1,00005781,BETHEL RD & GODOWN RD,8,11,19,40.063701,-83.057656,662
SUN,7,00001646,E 5TH AVE & N CASSADY AV,4,15,19,39.985053,-82.931145,663
SUN,23,00005313,KIMBERLY PKWY N & S HAMI,2,17,19,39.925762,-82.880487,664
SUN,2,00001217,N HIGH ST & E SCHREYER P,3,16,19,40.052411,-83.019992,665
SUN,2,00001202,N HIGH ST & E WEBER RD,5,14,19,40.024278,-83.01386,666
SUN,9,00002448,W MOUND ST & CENTRAL POI,8,11,19,39.945094,-83.038031,667
SUN,10,00002544,E BROAD ST & WINNER AVE,11,8,19,39.966349,-82.965665,668
SUN,5,00001606,W 5TH AVE & NORTHWEST BL,15,4,19,39.988602,-83.041166,669
SUN,2,00002325,E MAIN ST & RUBY AVE,12,6,19,39.956386,-82.906074,670
SUN,1,00002006,E LIVINGSTON AVE & WILSO,10,8,19,39.949597,-82.967595,671
SUN,23,00000281,MORSE CROSSING & EASTON,18,0,19,40.047999,-82.919992,672
SUN,1,00003217,E LIVINGSTON AVE & BAIRS,16,3,19,39.943181,-82.84429,673
SUN,32,00005669,STELZER RD & MCCUTCHEON,3,16,19,40.034035,-82.91019,674
SUN,1,00001915,E LIVINGSTON AVE & ANN S,9,10,19,39.951581,-82.9805,675
SUN,22,00002116,FREBIS AVE & STUDER AVE,14,5,19,39.934605,-82.965222,676
SUN,5,00004506,REFUGEE RD & WINCHESTER,8,11,19,39.917359,-82.914749,677
SUN,8,00002202,S HIGH ST & W SYCAMORE S,7,11,19,39.948761,-82.998109,678
SUN,6,00001144,CLEVELAND AVE & CORDELL,10,9,19,40.010987,-82.969103,679
SUN,8,00002205,S HIGH ST & W WHITTIER S,11,8,18,39.944256,-82.997229,680
SUN,6,00001926,S CLEVELAND AVE & W MAIN,6,12,18,40.123579,-82.948164,681
SUN,8,00002248,S 4TH ST & E INNIS AVE,12,6,18,39.926052,-82.993296,682
SUN,22,00007959,N CHAMPION AVE & MT VERN,3,15,18,39.972944,-82.968101,683
SUN,1,00001953,E LIVINGSTON AVE & GRATT,1,17,18,39.944852,-82.879777,684
SUN,6,00001158,CLEVELAND AVE & ESSEX AV,4,15,18,39.98778,-82.987878,685
SUN,10,00005428,E BROAD ST & TAYLOR STAT,4,15,18,39.979297,-82.842982,686
SUN,102,00001273,N HIGH ST & W HENDERSON,7,11,18,40.051625,-83.020184,687
SUN,10,00007407,W BROAD ST & STURBRIDGE,2,16,18,39.952008,-83.136067,688
SUN,5,00001535,W 5TH AVE & ASHLAND AVE,6,12,18,39.989095,-83.050098,689
SUN,2,00001306,N HIGH ST & W HUBBARD AV,3,15,18,39.978565,-83.003807,690
SUN,34,00001266,N HIGH ST & GRACELAND BL,18,0,18,40.064652,-83.019438,691
SUN,24,00002563,S HAMILTON RD & WRIGHT A,9,9,18,39.958243,-82.876661,692
SUN,2,00002355,E MAIN ST & S MONROE AVE,14,4,18,39.958082,-82.978528,693
SUN,2,00002338,E MAIN ST & S DREXEL AVE,12,5,18,39.957228,-82.937909,694
SUN,3,00002369,W TOWN ST & S DAVIS AVE,11,7,18,39.956206,-83.021218,695
SUN,1,00001179,N HIGH ST & BUTTLES AVE,12,6,18,39.977569,-83.003598,696
SUN,10,00007404,W BROAD ST & GLADYS RD,14,4,18,39.951878,-83.135469,697
SUN,1,00005218,BETHEL RD & DIERKER RD,15,3,18,40.064234,-83.074344,698
SUN,6,00002700,SULLIVANT AVE & NASHOBA,4,14,18,39.947855,-83.050625,699
SUN,7,00005305,N CASSADY AVE & E 5TH AV,8,10,18,39.985906,-82.931383,700
SUN,2,00002276,E MAIN ST & MILLER AVE,8,10,18,39.957613,-82.960884,701
SUN,7,00006871,EASTON WAY & EASTON SQUA,17,1,18,40.048214,-82.915359,702
SUN,5,00003228,REFUGEE RD & NOE BIXBY R,17,0,18,39.915289,-82.864363,703
SUN,2,00001292,N HIGH ST & W NORTHWOOD,9,9,18,40.007692,-83.009624,704
SUN,3,00006415,S FRONT ST & W MAIN ST,16,2,18,39.955166,-83.001054,705
SUN,2,00002349,E MAIN ST & WILSON AVE,8,10,18,39.957825,-82.966479,706
SUN,2,00001195,N HIGH ST & PATTERSON AV,4,14,18,40.009898,-83.010086,707
SUN,6,00001114,CLEVELAND AVE & REPUBLIC,7,11,18,40.015654,-82.966104,708
SUN,1,00001984,E LIVINGSTON AVE & S HAM,14,4,18,39.946749,-82.911827,709
SUN,9,00004228,W MOUND ST & S HIGH ST,14,4,18,39.954815,-82.999774,710
SUN,23,00004773,S JAMES RD & DALE AVE,8,9,18,39.963684,-82.914275,711
SUN,7,00004168,E SPRING ST & CLEVELAND,1,16,18,39.96754,-82.990377,712
SUN,5,00007978,E WHITTIER ST & SEYMOUR,11,7,18,39.942992,-82.955516,713
SUN,23,00004903,COURTRIGHT RD & PETZINGE,3,15,17,39.927428,-82.898562,714
SUN,8,00004637,OBETZ RD & SOUTHPOINT BL,2,15,17,39.882146,-82.998289,715
SUN,34,00001224,5220 N HIGH ST,1,17,17,40.068641,-83.019154,716
SUN,5,00001605,W 5TH AVE & GRANDVIEW AV,15,3,17,39.988776,-83.044687,717
SUN,33,00006645,N HIGH ST & W RATHBONE A,16,1,17,40.062839,-83.01957,718
SUN,2,00003519,E MAIN ST & BRICE RD,4,14,17,39.954776,-82.827893,719
SUN,8,00002215,S 4TH ST & REEB AVE,5,13,17,39.925076,-82.993413,720
SUN,10,00005484,W BROAD ST & N HARTFORD,7,11,17,39.959428,-83.024286,721
SUN,5,00002757,E WHITTIER ST & S 22ND S,2,15,17,39.943679,-82.973433,722
SUN,10,00002502,E BROAD ST & BEECHTREE R,9,8,17,39.973934,-82.894818,723
SUN,1,00001921,E LIVINGSTON AVE & WILSO,8,9,17,39.949529,-82.96747,724
SUN,10,00002532,E BROAD ST & N BROADLEIG,13,4,17,39.971163,-82.921801,725
SUN,31,00007793,E HUDSON ST & MCGUFFEY R,8,9,17,40.014272,-82.981721,726
SUN,31,00003957,N HIGH ST & E 18TH AVE,9,8,17,40.002886,-83.008689,727
SUN,2,00001265,5211 N HIGH ST,16,1,17,40.068865,-83.01924,728
SUN,34,00004014,MORSE RD & MAIZE RD,6,11,17,40.061298,-82.987768,729
SUN,102,00001227,N HIGH ST & MEADOWLARK L,3,14,17,40.073415,-83.018847,730
SUN,4,00004887,PARSONS AVE & E COLUMBUS,12,5,17,39.94655,-82.982738,731
SUN,5,00003540,FREBIS AVE & FAIRWOOD AV,7,10,17,39.934197,-82.95467,732
SUN,24,00006706,N HAMILTON RD & CHESTNUT,4,13,17,40.056862,-82.863546,733
SUN,5,00002760,E WHITTIER ST & WILSON A,2,15,17,39.943396,-82.967963,734
SUN,1,00001178,N HIGH ST & E RUSSELL ST,7,10,17,39.975796,-83.003141,735
SUN,1,00001994,E LIVINGSTON AVE & COLLE,8,9,17,39.948085,-82.936889,736
SUN,22,00006906,ALUM CREEK DR & WINSLOW,5,12,17,39.925625,-82.935741,737
SUN,34,00005972,MORSE RD & WESTERVILLE R,5,12,17,40.058677,-82.936739,738
SUN,6,00001116,CLEVELAND AVE & GENESSEE,6,10,17,40.018481,-82.965035,739
SUN,6,00001101,CLEVELAND AVE & CHITTEND,7,9,17,39.99561,-82.979632,740
SUN,1,00001917,E LIVINGSTON AVE & CARPE,7,10,17,39.950122,-82.975721,741
SUN,102,00001217,N HIGH ST & E SCHREYER P,7,9,17,40.052394,-83.019989,742
SUN,23,00005685,STELZER RD & MCCUTCHEON,12,4,17,40.033876,-82.910234,743
SUN,10,00002541,E BROAD ST & WOODLAND AV,10,6,17,39.967199,-82.95792,744
SUN,34,00005954,MORSE RD & CHESFORD RD,9,7,17,40.059045,-82.944878,745
SUN,3,00002634,2096 STRINGTOWN RD,15,2,17,39.878533,-83.057654,746
SUN,5,00005208,N HIGH ST & OHIO CENTER,10,7,17,39.970195,-83.0022,747
SUN,6,00004970,SULLIVANT AVE & DERRER R,14,3,17,39.942763,-83.09106,748
SUN,1,00003439,KENNY RD & MERRIMAR CIR,4,13,17,40.054229,-83.049514,749
SUN,23,00001984,E LIVINGSTON AVE & S HAM,10,6,17,39.94675,-82.911829,750
SUN,2,00005768,E MAIN ST & WILSON AVE,8,9,17,39.957739,-82.966988,751
SUN,5,00001520,W 5TH AVE & NEIL AVE,14,3,17,39.987409,-83.012863,752
SUN,6,00002708,SULLIVANT AVE & S WARREN,2,15,17,39.944028,-83.071093,753
SUN,1,00003476,KENNY RD & FOLKESTONE RD,14,3,17,40.050517,-83.049861,754
SUN,8,00002794,PARSONS AVE & E WELCH AV,4,12,17,39.929652,-82.984122,755
SUN,10,00002510,E BROAD ST & WOODCLIFF D,8,9,17,39.976338,-82.872094,757
SUN,8,00002796,PARSONS AVE & E INNIS AV,7,9,17,39.925966,-82.984395,757
SUN,6,00007474,110 E NATIONWIDE BLVD,2,15,17,39.969213,-82.998549,758
SUN,1,00001971,E LIVINGSTON AVE & SHADY,9,7,16,39.944464,-82.871033,759
SUN,10,00002480,E BROAD ST & LATTA AVE,4,13,16,39.9665,-82.962872,760
SUN,6,00001111,CLEVELAND AVE & CORDELL,8,9,16,40.011132,-82.9689,761
SUN,8,00006356,NEIL AVE & W 10TH AVE,6,11,16,39.994128,-83.014369,762
SUN,7,00001673,MOUNT VERNON AVE & TAYLO,11,5,16,39.974164,-82.961534,763
SUN,3,00005436,W MOUND ST & HARRISBURG,13,4,16,39.945941,-83.034608,764
SUN,1,00004096,N HIGH ST & SWAN ST,3,13,16,39.973171,-83.002666,765
SUN,10,00004242,4158 W BROAD ST,3,14,16,39.953193,-83.11179,766
SUN,4,00002622,PARSONS AVE & E WHITTIER,7,9,16,39.944334,-82.982913,767
SUN,10,00002652,W BROAD ST & S WESTGATE,10,6,16,39.954483,-83.082522,768
SUN,6,00001146,CLEVELAND AVE & E 26TH A,10,7,16,40.007865,-82.971013,769
SUN,7,00006870,EASTON WAY & EASTON SQUA,0,16,16,40.048029,-82.915667,770
SUN,102,00001225,N HIGH ST & E KANAWHA AV,9,8,16,40.070364,-83.019012,771
SUN,4,00002145,LOCKBOURNE RD & MARION R,14,2,16,39.923139,-82.965299,772
SUN,102,00006509,7330 HUNTINGTON PARK DR,8,8,16,40.114645,-83.006601,773
SUN,10,00004154,W BROAD ST & N SKIDMORE,9,8,16,39.960333,-83.016603,774
SUN,22,00003733,E 5TH AVE & 9TH ST,1,15,16,39.986467,-82.988169,775
SUN,5,00001179,N HIGH ST & BUTTLES AVE,9,7,16,39.977572,-83.003597,776
SUN,4,00002139,FAIRWOOD AVE & WATKINS R,16,0,16,39.904681,-82.957402,777
SUN,10,00004137,E BROAD ST & S 5TH ST,11,5,16,39.962845,-82.994389,778
SUN,7,00001676,MOUNT VERNON AVE & N 22N,7,9,16,39.972537,-82.971282,779
SUN,12,00004123,N FRONT ST & W BROAD ST,13,3,16,39.963037,-83.002518,780
SUN,6,00001755,GEORGESVILLE RD & INDUST,1,15,16,39.944897,-83.111381,781
SUN,2,00001190,N HIGH ST & E 15TH AVE,9,7,16,40.000221,-83.008064,782
SUN,1,00003189,E LIVINGSTON AVE & BAIRS,2,14,16,39.943065,-82.844011,783
SUN,1,00004204,2825 OLENTANGY RIVER RD,1,15,16,40.018488,-83.023812,784
SUN,34,00007903,STELZER RD & MORSE RD,4,12,16,40.058144,-82.910309,785
SUN,10,00001168,E BROAD ST & MAPLEWOOD A,4,12,16,39.973202,-82.90185,786
SUN,6,00001145,CLEVELAND AVE & E MAYNAR,9,7,16,40.009562,-82.969976,787
SUN,10,00001169,E BROAD ST & COLLINGWOOD,4,12,16,39.973466,-82.899313,788
SUN,24,00006701,STELZER RD AT SAMS CLUB,15,1,16,40.059453,-82.910391,789
SUN,1,00001182,N HIGH ST & E 2ND AVE,10,6,16,39.983313,-83.004723,790
SUN,6,00001152,CLEVELAND AVE & E 15TH A,9,6,16,39.998863,-82.976745,791
SUN,5,00007977,E WHITTIER ST & SEYMOUR,11,5,16,39.943042,-82.955185,792
SUN,8,00001408,NEIL AVE & COLLINS AVE,7,8,16,39.97604,-83.010914,793
SUN,4,00001475,INDIANOLA AVE & E JEFFRE,14,2,16,40.060332,-83.000992,794
SUN,6,00001110,CLEVELAND AVE & DUXBERRY,7,8,16,40.00867,-82.970409,795
SUN,23,00006701,STELZER RD AT SAMS CLUB,14,2,16,40.059189,-82.910391,796
SUN,8,00005139,KARL RD & MORSE RD,13,2,16,40.059891,-82.977171,797
SUN,6,00006054,CLEVELAND AVE & AGLER RD,5,11,16,40.027334,-82.964309,798
SUN,2,00001213,N HIGH ST & GLENMONT AVE,4,11,16,40.044775,-83.019325,799
SUN,3,00003006,HARRISBURG PIKE & HOPKIN,12,3,16,39.932319,-83.047941,800
SUN,22,00003752,E 5TH AVE & CLEVELAND AV,13,2,16,39.986352,-82.988324,801
SUN,6,00002734,SULLIVANT AVE & HILLTONI,11,4,16,39.947478,-83.052265,802
SUN,7,00001635,MOUNT VERNON AVE & TAYLO,5,11,16,39.974142,-82.96133,803
SUN,10,00004410,4250 W BROAD ST,2,14,16,39.95302,-83.115179,804
SUN,7,00001629,MOUNT VERNON AVE & N 18T,2,13,16,39.971662,-82.975859,805
SUN,8,00004116,S 3RD ST & E TOWN ST,8,7,16,39.958716,-82.997335,806
SUN,5,00004095,N HIGH ST & SPRUCE ST,9,6,16,39.972764,-83.002574,807
SUN,6,00006559,COOPER RD & SCHROCK RD,1,15,15,40.111406,-82.942929,808
SUN,3,00002998,3136 BROADWAY,14,2,15,39.90032,-83.078561,809
SUN,5,00003942,REFUGEE RD & NOE BIXBY R,0,15,15,39.91516,-82.86401,810
SUN,31,00006871,EASTON WAY & EASTON SQUA,15,1,15,40.048221,-82.915279,811
SUN,6,00002729,SULLIVANT AVE & S EUREKA,10,5,15,39.945194,-83.064436,812
SUN,34,00007087,MORSE RD & INDIANOLA AVE,5,11,15,40.061745,-82.999607,813
SUN,1,00001304,N HIGH ST & W STARR AVE,5,10,15,39.983073,-83.00468,814
SUN,4,00002018,E FULTON ST & S HIGH ST,1,14,15,39.953611,-82.998495,815
SUN,34,00006872,MORSE CROSSING & GRAMERC,14,2,15,40.05172,-82.919706,816
SUN,1,00003187,E LIVINGSTON AVE & NOE B,2,13,15,39.943355,-82.853235,817
SUN,2,00001304,N HIGH ST & W STARR AVE,5,10,15,39.983105,-83.004726,818
SUN,8,00007279,HAMILTON AVE & E 20TH AV,4,12,15,40.003749,-82.97968,819
SUN,7,00007339,MT VERNON AVE & N MONROE,12,3,15,39.97135,-82.977999,820
SUN,10,00004282,W BROAD ST & GEORGESVILL,12,3,15,39.953044,-83.10956,821
SUN,23,00001980,E LIVINGSTON AVE & RAND,12,4,15,39.946208,-82.901901,822
SUN,8,00001736,MCGUFFEY RD & E WEBER RD,7,9,15,40.023276,-82.981436,823
SUN,152,00004095,N HIGH ST & SPRUCE ST,15,0,15,39.972735,-83.002627,824
SUN,2,00001962,E MAIN ST & SHADY LANE R,4,12,15,39.955252,-82.870899,825
SUN,5,00003242,REFUGEE RD & CITIZENS PL,5,10,15,39.91539,-82.878439,826
SUN,10,00002508,E BROAD ST & FAIRWAY BLV,5,10,15,39.975736,-82.87753,827
SUN,24,00006705,MORSE RD & STONERIDGE DR,2,13,15,40.05538,-82.866833,828
SUN,34,00004535,MORSE RD & DUNBRIDGE ST,10,5,15,40.058653,-82.931989,829
SUN,141,00005499,RIVERSIDE DR & NOTTINGHA,1,14,15,40.026346,-83.091416,830
SUN,102,00007482,8664 SANCUS BLVD,2,13,15,40.140494,-82.991218,831
SUN,10,00002517,E BROAD ST & FAIRWAY BLV,8,7,15,39.975807,-82.877923,832
SUN,32,00001134,CLEVELAND AVE & OAKLAND,9,6,15,40.03176,-82.964195,833
SUN,33,00003856,N HIGH ST & FITZ HENRY B,7,8,15,40.066361,-83.019217,834
SUN,121,00002201,S HIGH ST & W BLENKNER S,3,12,15,39.951778,-82.998712,835
SUN,6,00002745,SULLIVANT AVE & S SOUDER,8,7,15,39.953164,-83.021891,836
SUN,5,00002771,E WHITTIER ST & OAKWOOD,11,4,15,39.943514,-82.969525,837
SUN,8,00005743,NEIL AVE & W 11TH AVE,7,8,15,39.995938,-83.014713,838
SUN,2,00003707,E MAIN ST & MCNAUGHTEN R,14,1,15,39.954827,-82.837141,839
SUN,1,00001975,E LIVINGSTON AVE & WESTP,11,4,15,39.945176,-82.883472,840
SUN,6,00002690,SULLIVANT AVE & S GLENWO,6,9,15,39.951897,-83.028851,841
SUN,2,00001295,N HIGH ST & E 15TH AVE,7,8,15,39.999746,-83.008041,842
SUN,6,00006056,5555 CLEVELAND AVE,12,3,15,40.081553,-82.951424,843
SUN,1,00006532,GODOWN RD & BETHEL RD,9,6,15,40.062898,-83.056724,844
SUN,7,00005982,N JAMES RD & ALLEGHENY A,4,11,15,39.979701,-82.913234,845
SUN,5,00002756,E WHITTIER ST & CARPENTE,2,13,15,39.94377,-82.975371,846
SUN,7,00001632,MOUNT VERNON AVE & N CHA,6,9,15,39.973013,-82.968277,847
SUN,22,00007594,E 11TH AVE & N HIGH ST,1,14,15,39.994849,-83.006742,848
SUN,3,00005303,HARRISBURG PIKE & LITTLE,11,4,15,39.93043,-83.050592,849
SUN,24,00006663,4180 STELZER RD,0,15,15,40.059552,-82.910147,850
SUN,7,00004228,W MOUND ST & S HIGH ST,13,2,15,39.954822,-82.999812,851
SUN,2,00003518,E MAIN ST & IDLEWILD DR,5,9,15,39.95474,-82.831085,852
SUN,9,00006325,W NATIONWIDE BLVD & N FR,11,4,15,39.968776,-83.002914,853
SUN,3,00007316,W MAIN ST & S LUDLOW ST,14,1,15,39.955629,-83.002348,854
SUN,31,00007537,N HIGH ST & W LANE AVE,6,9,15,40.005597,-83.009223,855
SUN,7,00004158,E LONG ST & N 4TH ST,13,2,15,39.965387,-82.996996,856
SUN,3,00007174,W MAIN ST & S LUDLOW ST,1,14,15,39.955916,-83.002055,857
SUN,6,00003082,CLEVELAND AVE & LAMONT A,6,8,15,40.043049,-82.959683,858
SUN,2,00003709,E MAIN ST & FOUNTAIN LN,13,1,15,39.955043,-82.860072,859
SUN,8,00004682,CLEVELAND AVE & E 13TH A,10,4,15,39.996703,-82.978633,860
SUN,10,00004413,E BROAD ST & JEFFERSON A,8,6,14,39.964195,-82.984237,861
SUN,3,00002457,S DAVIS AVE & SULLIVANT,7,8,14,39.953564,-83.020383,862
SUN,1,00001978,E LIVINGSTON AVE & BEECH,11,3,14,39.945823,-82.894813,863
SUN,1,00005142,EASTGREEN BLVD & OFFICEV,12,2,14,39.938515,-82.828976,864
SUN,2,00002285,E MAIN ST & S DREXEL AVE,4,11,14,39.957148,-82.937862,865
SUN,10,00002479,E BROAD ST & WILSON AVE,4,10,14,39.966185,-82.965705,866
SUN,23,00007925,KIMBERLY PKWY & S HAMILT,11,3,14,39.925859,-82.880652,867
SUN,7,00001674,MOUNT VERNON AVE & GRAHA,10,5,14,39.973782,-82.964081,868
SUN,6,00002727,SULLIVANT AVE & S OGDEN,12,3,14,39.944148,-83.06999,869
SUN,25,00007136,PARK CRESCENT DR & ALSHI,7,7,14,39.928559,-82.842908,870
SUN,2,00001305,N HIGH ST & PRICE AVE,4,10,14,39.980411,-83.004179,871
SUN,21,00007742,WESTWOODS BLVD & WESTWOO,2,12,14,39.95028,-83.146929,872
SUN,31,00001296,N HIGH ST & E 13TH AVE,5,9,14,39.998086,-83.007762,873
SUN,102,00006781,POLARIS PKWY & LYRA DR,12,2,14,40.141652,-82.977464,874
SUN,3,00001586,S 4TH ST & E TOWN ST,4,10,14,39.958881,-82.995499,875
SUN,34,00006538,4155 MORSE CROSSING,1,13,14,40.055093,-82.918691,876
SUN,1,00004929,E LIVINGSTON AVE & S 18T,5,9,14,39.950803,-82.977533,877
SUN,2,00002305,E MAIN ST & WESTPHAL AVE,2,12,14,39.955595,-82.88248,878
SUN,151,00005382,INTERNATIONAL GATEWAY &,8,7,14,39.998597,-82.892238,879
SUN,5,00006314,1900 ALUM CREEK DR,5,9,14,39.930764,-82.940502,880
SUN,32,00005685,STELZER RD & MCCUTCHEON,12,2,14,40.033974,-82.910333,881
SUN,6,00002744,SULLIVANT AVE & HAWKES A,8,6,14,39.952647,-83.024649,882
SUN,34,00006517,EASTON WAY & MORSE CROSS,1,13,14,40.048606,-82.919278,883
SUN,1,00006778,2825 OLENTANGY RIVER RD,11,3,14,40.018786,-83.024092,884
SUN,22,00001525,W 5TH AVE & OLENTANGY RI,4,10,14,39.988053,-83.026635,885
SUN,6,00003084,CLEVELAND AVE & FERRIS R,2,12,14,40.050473,-82.953707,886
SUN,1,00007541,W LANE AVE & TUTTLE PARK,7,6,14,40.006366,-83.016928,887
SUN,34,00004015,MORSE RD & KINGSHILL DR,7,7,14,40.061405,-82.990224,888
SUN,34,00005976,MORSE RD & CHESFORD RD,8,6,14,40.059238,-82.945003,889
SUN,21,00007743,WESTWOODS BLVD & WESTWOO,11,3,14,39.950317,-83.146824,890
SUN,10,00004922,W BROAD ST & PHILLIPI RD,3,10,14,39.953308,-83.109171,891
SUN,4,00002116,FREBIS AVE & STUDER AVE,5,9,14,39.934582,-82.965195,893
SUN,24,00006709,MORSE RD & KOHLS ENTRANC,11,3,14,40.0555,-82.866083,893
SUN,33,00007738,W HENDERSON RD & KENNY R,10,4,14,40.053168,-83.050277,894
SUN,6,00005386,CLEVELAND AVE & NORTHLAN,0,14,14,40.081647,-82.951267,895
SUN,2,00001276,N HIGH ST & BLENHEIM RD,12,1,14,40.04412,-83.019289,896
SUN,33,00007687,W DUBLIN GRANDVILLE RD &,3,10,14,40.097515,-83.092538,897
SUN,33,00005217,PICKFORDE DR & GARDENIA,8,6,14,40.06625,-83.086671,898
SUN,32,00006870,EASTON WAY & EASTON SQUA,1,13,14,40.048038,-82.915621,899
SUN,121,00007413,HIGH ST & PRESCOTT ST,1,13,14,39.98018,-83.004064,900
SUN,6,00002703,SULLIVANT AVE & CLARENDO,2,12,14,39.946419,-83.058271,901
SUN,22,00007960,N CHAMPION AVE & MT VERN,11,3,14,39.972848,-82.968359,902
SUN,23,00005669,STELZER RD & MCCUTCHEON,4,10,14,40.03388,-82.910066,903
SUN,5,00003590,ALUM CREEK DR & FREBIS A,2,12,14,39.933065,-82.942097,904
SUN,22,00003550,S CHAMPION AVE & E WHITT,10,3,14,39.943295,-82.970564,905
SUN,5,00003816,S HAMILTON RD & REFUGEE,4,10,14,39.915985,-82.880464,906
SUN,3,00003146,HARRISBURG PIKE & ZETTLE,5,8,14,39.930131,-83.051283,907
SUN,1,00001183,N HIGH ST & E 4TH AVE,6,8,14,39.985211,-83.005082,908
SUN,8,00001155,CLEVELAND AVE & E 11TH A,9,5,13,39.994013,-82.981644,909
SUN,102,00006279,1481 POLARIS PKWY,2,12,13,40.141179,-82.979721,910
SUN,6,00007174,W MAIN ST & S LUDLOW ST,2,11,13,39.955837,-83.002178,911
SUN,10,00004141,E BROAD ST & JEFFERSON A,7,6,13,39.963954,-82.984901,912
SUN,2,00002275,E MAIN ST & KIMBALL PL,7,6,13,39.957672,-82.963769,913
SUN,10,00002645,W BROAD ST & HALDY AVE,5,9,13,39.954773,-83.079222,914
SUN,2,00001211,N HIGH ST & ACTON RD,4,10,13,40.041024,-83.01831,915
SUN,4,00002120,LOCKBOURNE RD & REEB AVE,3,10,13,39.924336,-82.965289,916
SUN,10,00002647,W BROAD ST & N BRINKER A,4,10,13,39.954529,-83.084222,917
SUN,1,00001933,E LIVINGSTON AVE & COLLE,5,9,13,39.947958,-82.936445,918
SUN,6,00002369,W TOWN ST & S DAVIS AVE,8,5,13,39.956181,-83.021204,919
SUN,1,00004094,N HIGH ST & OHIO CENTER,4,9,13,39.969824,-83.002013,920
SUN,2,00004094,N HIGH ST & OHIO CENTER,6,7,13,39.969806,-83.002027,921
SUN,2,00002343,E MAIN ST & RHOADS AVE,8,5,13,39.957497,-82.949151,922
SUN,7,00004123,N FRONT ST & W BROAD ST,12,1,13,39.963021,-83.00248,923
SUN,7,00003181,N CASSADY AVE & E 5TH AV,8,6,13,39.985411,-82.931591,924
SUN,9,00007434,S 4TH ST & E CAPITAL ST,9,4,13,39.961931,-82.996041,925
SUN,102,00007483,8685 SANCUS BLVD,12,1,13,40.140599,-82.991404,926
SUN,6,00002706,SULLIVANT AVE & S TERRAC,2,11,13,39.944895,-83.066376,927
SUN,1,00006580,SAWMILL RD & BETHEL RD,2,11,13,40.065995,-83.092998,928
SUN,10,00004050,W BROAD ST & NORTON RD,11,2,13,39.951696,-83.138913,929
SUN,2,00002332,E MAIN ST & S CHESTERFIE,9,4,13,39.956813,-82.920905,930
SUN,10,00002522,E BROAD ST & BEECHTREE R,9,4,13,39.974147,-82.893847,931
SUN,1,00003437,KENNY RD & FOLKESTONE RD,2,11,13,40.050015,-83.049765,932
SUN,23,00004768,S JAMES RD & DALE AVE,8,5,13,39.96416,-82.914075,933
SUN,9,00004114,S 3RD ST & E BROAD ST,8,5,13,39.962135,-82.99794,934
SUN,10,00004414,E BROAD ST & PARKLAWN BL,10,2,13,39.975275,-82.883005,935
SUN,4,00001497,E HUDSON ST & SUMMIT ST,9,4,13,40.015095,-83.001039,936
SUN,4,00006804,MORSE RD & INDIANOLA AVE,2,11,13,40.061556,-83.000601,937
SUN,33,00001263,N HIGH ST & W KANAWHA AV,1,12,13,40.071299,-83.019116,938
SUN,2,00004295,E MAIN ST & SHADY LANE R,11,2,13,39.955371,-82.87112,939
SUN,3,00002960,HARRISBURG PIKE & EAKIN,3,10,13,39.931713,-83.048869,940
SUN,8,00001151,CLEVELAND AVE & E 17TH A,5,8,13,40.000118,-82.976072,941
SUN,4,00006398,S FRONT ST & W TOWN ST,4,8,13,39.958973,-83.001783,942
SUN,7,00006517,EASTON WAY & MORSE CROSS,0,13,13,40.048398,-82.919497,943
SUN,121,00001306,N HIGH ST & W HUBBARD AV,11,2,13,39.978508,-83.003774,944
SUN,2,00001194,N HIGH ST & E NORTHWOOD,7,6,13,40.007769,-83.009554,945
SUN,22,00007921,1333 FIELDS AVE,6,7,13,39.990802,-82.991661,946
SUN,10,00006528,E BROAD ST & BLACKLICK X,2,11,13,39.98233,-82.817138,947
SUN,33,00007180,6200 SAWMILL RD,1,12,13,40.091973,-83.091659,948
SUN,6,00001517,CLEVELAND AVE & PEGG RD,3,9,13,40.044546,-82.958352,949
SUN,3,00006976,STRINGTOWN RD & HOOVER R,2,11,13,39.881028,-83.069125,950
SUN,33,00006372,N HIGH ST & E ROYAL FORE,0,12,13,40.060845,-83.019513,951
SUN,8,00002209,HANFORD ST & S HIGH ST,2,10,13,39.936832,-82.995667,952
SUN,2,00001277,N HIGH ST & CHATHAM RD,9,4,13,40.042095,-83.018742,953
SUN,7,00001631,MOUNT VERNON AVE & N 22N,5,8,13,39.972486,-82.971252,954
SUN,1,00005131,BETHEL RD & DIERKER RD,2,11,13,40.064405,-83.075577,955
SUN,5,00003245,CHATTERTON RD & NOE BIXB,2,10,13,39.915364,-82.862599,956
SUN,6,00007251,FUJI DR & BRADY DR,3,10,13,40.088304,-82.953883,957
SUN,1,00003524,OLENTANGY RIVER RD & W L,5,7,13,40.007406,-83.022833,958
SUN,8,00007312,S HIGH ST & BOB EVANS,1,12,13,39.883132,-83.000238,959
SUN,1,00001305,N HIGH ST & PRICE AVE,5,8,13,39.980386,-83.004151,960
SUN,33,00005133,PICKFORDE DR & GARDENIA,3,10,13,40.066346,-83.086499,961
SUN,34,00006804,MORSE RD & INDIANOLA AVE,9,4,12,40.06164,-83.000726,962
SUN,8,00007596,E 11TH AVE & N 4TH ST,7,6,12,39.994484,-82.999584,963
SUN,102,00001253,N HIGH ST & W NORTH ST,10,2,12,40.092685,-83.01793,964
SUN,2,00002291,E MAIN ST & S BROADLEIGH,2,10,12,39.956751,-82.922837,965
SUN,5,00007963,FREBIS AVE & FAIRWOOD AV,8,4,12,39.934264,-82.954721,966
SUN,32,00001123,CLEVELAND AVE & OAKLAND,5,7,12,40.031492,-82.964113,967
SUN,1,00001952,E LIVINGSTON AVE & BURLI,2,10,12,39.945057,-82.88335,968
SUN,34,00006537,1778 MORSE RD,7,6,12,40.060324,-82.973487,969
SUN,6,00001135,CLEVELAND AVE & E NORTH,10,3,12,40.029179,-82.964257,970
SUN,8,00002258,S HIGH ST & E COLUMBUS S,6,6,12,39.946067,-82.997455,971
SUN,5,00002751,E WHITTIER ST & JAEGER S,2,10,12,39.944527,-82.990263,972
SUN,4,00004662,N 4TH ST & E SPRING ST,8,4,12,39.966491,-82.997047,973
SUN,7,00001682,MARTIN LUTHER KING & ST,9,3,12,39.970649,-82.980289,974
SUN,6,00006787,COOPER RD & SCHROCK RD,11,1,12,40.11117,-82.942993,975
SUN,8,00002792,PARSONS AVE & SHELDON AV,7,5,12,39.933596,-82.983854,976
SUN,8,00004638,OBETZ RD & SOUTHPOINT BL,9,3,12,39.882148,-82.998587,977
SUN,6,00004955,SULLIVANT AVE & N WILSON,2,10,12,39.942732,-83.093949,978
SUN,5,00001183,N HIGH ST & E 4TH AVE,4,8,12,39.985202,-83.005088,979
SUN,23,00005734,STELZER RD & MIDDLEMORE,5,7,12,40.030102,-82.910451,980
SUN,8,00007203,KARL RD & STONEGATE SQUA,4,8,12,40.04929,-82.976755,981
SUN,8,00001729,HAMILTON AVE & DUXBERRY,1,11,12,40.009035,-82.979335,982
SUN,4,00002787,PARSONS AVE & E WHITTIER,8,5,12,39.944364,-82.983017,983
SUN,2,00002348,E MAIN ST & KENDALL PL,7,5,12,39.957777,-82.964177,984
SUN,6,00004237,CLEVELAND AVE & MORSE CR,2,10,12,40.05247,-82.95349,985
SUN,5,00001303,N HIGH ST & W 4TH AVE,8,4,12,39.984974,-83.005083,986
SUN,32,00003665,E NORTH BROADWAY ST & IN,6,6,12,40.031358,-83.001493,987
SUN,31,00006356,NEIL AVE & W 10TH AVE,7,6,12,39.994131,-83.014432,988
SUN,6,00002702,SULLIVANT AVE & WHITETHO,4,8,12,39.946861,-83.055918,989
SUN,102,00007496,HIGH CROSS BLVD & DIMENS,10,2,12,40.117687,-83.012336,990
SUN,8,00001820,HAMILTON AVE & E 21ST AV,10,2,12,40.004056,-82.979728,991
SUN,1,00001307,N HIGH ST & BUTTLES AVE,5,7,12,39.976914,-83.003434,992
SUN,10,00006821,E BROAD ST & MEIJER DR,1,10,12,39.985786,-82.785773,993
SUN,22,00004080,E 5TH AVE & JOYCE AVE,3,9,12,39.985597,-82.967744,994
SUN,2,00007413,HIGH ST & PRESCOTT ST,8,4,12,39.980148,-83.004121,995
SUN,6,00002742,SULLIVANT AVE & S GLENWO,7,5,12,39.95177,-83.029326,996
SUN,6,00002688,SULLIVANT AVE & AVONDALE,4,8,12,39.95252,-83.025501,997
SUN,5,00002203,S HIGH ST & W FRANKFORT,6,6,12,39.947206,-82.997782,998
SUN,7,00001853,N CASSADY AVE & E 10TH A,8,4,12,39.989633,-82.93066,999
SUN,25,00007317,BRICE RD & LIVINGSTON AV,9,3,12,39.94223,-82.829959,1000
SUN,2,00002333,E MAIN ST & KENWICK RD,8,3,12,39.956882,-82.923655,1001
SUN,31,00001193,N HIGH ST & E LANE AVE,9,3,12,40.006419,-83.009269,1002
SUN,2,00007400,E MOUND ST & S 5TH ST,4,8,12,39.955762,-82.991594,1003
SUN,10,00004147,E BROAD ST & N 5TH ST,5,6,12,39.963069,-82.99403,1004
SUN,10,00002492,E BROAD ST & S HARDING R,5,7,12,39.971359,-82.918972,1005
SUN,8,00005663,S HIGH ST & HIGHVIEW BLV,10,1,12,39.889339,-82.997574,1006
SUN,22,00003307,E 5TH AVE & SAINT CLAIR,8,3,12,39.98614,-82.979987,1007
SUN,33,00007158,SAWMILL RD & CRANSTON DR,1,11,12,40.085855,-83.091966,1008
SUN,10,00007973,W BROAD ST & BELLE ST,6,6,12,39.961227,-83.00833,1009
SUN,24,00004390,N HAMILTON RD & ROCKY FO,10,2,12,40.009764,-82.867362,1010
SUN,31,00007823,MOCK RD & WOODLAND AVE,10,1,12,40.011712,-82.953268,1011
SUN,7,00006415,S FRONT ST & W MAIN ST,10,2,12,39.95537,-83.001038,1012
SUN,5,00001178,N HIGH ST & E RUSSELL ST,4,8,12,39.975807,-83.00312,1013
SUN,8,00001724,HAMILTON AVE & E 17TH AV,3,8,12,40.000799,-82.979767,1014
SUN,1,00001945,E LIVINGSTON AVE & ZETTL,2,10,12,39.946549,-82.910139,1015
SUN,22,00006905,ALUM CREEK DR & WINSLOW,10,2,12,39.925251,-82.935332,1016
SUN,31,00007783,E HUDSON ST & JOYCE AVE,4,8,12,40.01343,-82.962228,1017
SUN,3,00002371,S SOUDER AVE & SULLIVANT,7,5,12,39.952933,-83.021642,1018
SUN,2,00002293,E MAIN ST & BROOKSIDE DR,4,8,12,39.956611,-82.917576,1019
SUN,3,00006961,COLUMBUS ST & BROADWAY,6,5,11,39.88322,-83.091835,1020
SUN,11,00000217,E MAIN ST & HOLTZMAN AVE,4,7,11,39.957325,-82.945983,1021
SUN,4,00001488,INDIANOLA AVE & OAKLAND,10,1,11,40.033143,-83.000953,1022
SUN,102,00001479,N HIGH ST & HIGHLAND AVE,1,10,11,40.105484,-83.016938,1023
SUN,8,00001695,NEIL AVE & W 5TH AVE,6,5,11,39.987169,-83.013013,1024
SUN,32,00006871,EASTON WAY & EASTON SQUA,10,1,11,40.048219,-82.915253,1025
SUN,8,00007760,STATE RTE 161 & KARL RD,2,9,11,40.087026,-82.975597,1026
SUN,10,00002531,E BROAD ST & N HARDING R,8,3,11,39.971439,-82.919265,1027
SUN,1,00003474,KENNY RD & MERRIMAR CIR,10,2,11,40.05404,-83.049651,1028
SUN,34,00007105,MORSE RD & HEATON RD,6,5,11,40.060118,-82.966785,1029
SUN,5,00003740,CHATTERTON RD & NOE BIXB,9,3,11,39.915577,-82.862388,1030
SUN,1,00001916,E LIVINGSTON AVE & S 18T,6,6,11,39.950872,-82.978134,1031
SUN,8,00005093,4645 TAMARACK BLVD,8,3,11,40.06234,-82.9709,1032
SUN,23,00007903,STELZER RD & MORSE RD,3,8,11,40.058135,-82.910303,1033
SUN,5,00001307,N HIGH ST & BUTTLES AVE,7,4,11,39.976917,-83.00346,1034
SUN,5,00002759,E WHITTIER ST & S CHAMPI,3,8,11,39.943548,-82.970705,1035
SUN,24,00003907,S HAMILTON RD & GROVES R,3,8,11,39.929832,-82.879394,1036
SUN,11,00001586,S 4TH ST & E TOWN ST,6,5,11,39.958825,-82.995192,1037
SUN,8,00007255,S 4TH ST & E WOODROW AVE,8,4,11,39.927639,-82.993176,1038
SUN,152,00004096,N HIGH ST & SWAN ST,1,11,11,39.973068,-83.002667,1039
SUN,121,00004094,N HIGH ST & OHIO CENTER,3,8,11,39.969829,-83.002081,1040
SUN,11,00004934,E MAIN ST & HOLTZMAN AVE,6,5,11,39.957361,-82.945325,1041
SUN,8,00007083,NATIONWIDE BLVD & MCCONN,8,4,11,39.968255,-83.007774,1042
SUN,6,00001154,CLEVELAND AVE & CHITTEND,7,4,11,39.995159,-82.980239,1043
SUN,1,00001303,N HIGH ST & W 4TH AVE,8,3,11,39.985006,-83.00507,1044
SUN,3,00006819,HARRISBURG PIKE & CENTER,2,9,11,39.905699,-83.074563,1045
SUN,8,00001318,NEIL AVE & COLLINS AVE,5,6,11,39.976174,-83.010868,1046
SUN,1,00001186,N HIGH ST & EUCLID AVE,4,7,11,39.99128,-83.006318,1047
SUN,5,00001527,W 5TH AVE & HESS ST,2,9,11,39.988206,-83.03198,1048
SUN,7,00007897,GREENWAY AVE & CLIFTON A,6,5,11,39.971585,-82.949905,1049
SUN,5,00004094,N HIGH ST & OHIO CENTER,6,5,11,39.969856,-83.002137,1050
SUN,3,00002459,W RICH ST & S GREEN ST,4,7,11,39.95516,-83.01955,1051
SUN,5,00002775,E WHITTIER ST & HEYL AVE,10,1,11,39.943904,-82.977237,1052
SUN,1,00007089,BETHEL RD & GREYSTONE DR,2,9,11,40.064925,-83.090383,1053
SUN,7,00005369,STELZER RD & E 6TH AVE,3,8,11,39.985625,-82.914093,1054
SUN,10,00006297,E BROAD ST & OUTERBELT S,3,8,11,39.980786,-82.830898,1055
SUN,21,00006096,BRITTON PKWY & HIRTH RD,5,6,11,40.073133,-83.138998,1056
SUN,34,00005293,MORSE RD & KARL RD,8,3,11,40.060774,-82.978991,1058
SUN,10,00006624,E BROAD ST & BROAD POINT,1,10,11,39.982018,-82.819875,1058
SUN,8,00005074,RED ROBIN RD & TAMARACK,8,3,11,40.064835,-82.970413,1059
SUN,8,00005377,KARL RD & NORTHLAND SR V,7,4,11,40.048702,-82.976889,1060
SUN,2,00002316,E MAIN ST & BERNHARD RD,9,2,11,39.955635,-82.879912,1061
SUN,6,00002740,SULLIVANT AVE & DANA AVE,8,3,11,39.950779,-83.034626,1062
SUN,4,00001499,SUMMIT ST & E MAYNARD AV,9,2,11,40.010912,-83.000396,1063
SUN,6,00003092,CLEVELAND AVE & WILDWOOD,1,10,11,40.078871,-82.951471,1064
SUN,1,00002015,E LIVINGSTON AVE & S GRA,2,9,11,39.952525,-82.988767,1065
SUN,8,00003967,KARL RD & SANDALWOOD PL,0,11,11,40.077377,-82.975947,1066
SUN,10,00006822,E BROAD ST & MEIJER DR,11,0,11,39.985814,-82.786904,1067
SUN,23,00002167,KIMBERLY PKWY N & COURTR,3,7,11,39.921605,-82.89651,1068
SUN,10,00002651,W BROAD ST & S ALGONQUIN,8,3,11,39.954342,-83.085422,1069
SUN,102,00006278,1319 POLARIS PKWY,0,11,11,40.141331,-82.984408,1070
SUN,121,00004096,N HIGH ST & SWAN ST,4,6,11,39.973154,-83.002678,1071
SUN,5,00003536,ALUM CREEK DR & INTEGRIT,8,3,11,39.932226,-82.941467,1072
SUN,9,00006805,MOUND ST & CLARENDON AVE,3,8,11,39.940287,-83.05629,1073
SUN,1,00003472,KENNY RD & WEYBRIDGE RD,9,2,11,40.056658,-83.049463,1074
SUN,10,00007266,E BROAD ST & EASTPOINTE,10,1,11,39.982362,-82.818207,1075
SUN,11,00006314,1900 ALUM CREEK DR,1,10,11,39.93078,-82.940738,1076
SUN,5,00002774,E WHITTIER ST & GILBERT,9,2,11,39.943764,-82.974297,1077
SUN,6,00002724,SULLIVANT AVE & BINNS BL,8,3,11,39.943417,-83.078343,1078
SUN,8,00001708,NEIL AVE & W 5TH AVE,2,9,11,39.987517,-83.01316,1079
SUN,8,00007281,E 11TH AVE & JEFFERSON A,6,5,11,39.993732,-82.982925,1080
SUN,2,00003850,E MAIN ST & LAMBY LN,7,4,11,39.955992,-82.892249,1081
SUN,4,00002827,PARSONS AVE & THURMAN AV,8,2,11,39.939455,-82.983294,1082
SUN,3,00006983,STRINGTOWN RD & HOOVER R,8,3,11,39.881152,-83.068947,1083
SUN,4,00001446,INDIANOLA AVE & E N BROA,1,9,11,40.03159,-83.000971,1084
SUN,2,00001645,E MAIN ST & S 4TH ST,7,4,11,39.956664,-82.994717,1085
SUN,2,00002298,E MAIN ST & MAPLEWOOD AV,1,9,11,39.956186,-82.903236,1086
SUN,7,00007205,E SPRING ST & N 4TH ST,1,10,11,39.966726,-82.997782,1087
SUN,33,00001222,N HIGH ST & LELAND AVE,3,8,11,40.063349,-83.019373,1088
SUN,6,00001136,CLEVELAND AVE & WELDON A,8,3,11,40.027464,-82.964389,1089
SUN,2,00001208,N HIGH ST & E TORRENCE R,4,7,11,40.035029,-83.016702,1090
SUN,1,00001929,E LIVINGSTON AVE & RHOAD,6,4,11,39.948641,-82.949526,1091
SUN,31,00001681,MOCK RD & CENTURY DR,7,4,11,40.011412,-82.946623,1092
SUN,9,00001797,E MOUND ST & S HIGH ST,7,4,11,39.954908,-82.998877,1093
SUN,23,00004730,COURTRIGHT RD & OAKCREST,10,1,11,39.924836,-82.8987,1094
SUN,2,00002356,E MAIN ST & PARSONS AVE,4,6,11,39.958136,-82.981591,1095
SUN,8,00001818,HAMILTON AVE & DUXBERRY,8,3,11,40.009085,-82.979415,1096
SUN,4,00001428,N 4TH ST & E 18TH AVE,2,8,11,40.002147,-82.998542,1097
SUN,6,00007316,W MAIN ST & S LUDLOW ST,8,3,11,39.955731,-83.002314,1098
SUN,8,00002820,PARSONS AVE & E INNIS AV,7,3,11,39.926042,-82.98429,1099
SUN,102,00005979,N HIGH ST & CAREN AVE,10,1,11,40.10545,-83.017143,1100
SUN,8,00002234,3650 S HIGH ST,2,9,11,39.887001,-82.998659,1101
SUN,4,00002119,LOCKBOURNE RD & SMITH RD,1,10,11,39.92734,-82.965044,1102
SUN,1,00007545,W LANE AVE & OLENTANGY R,3,7,11,40.006644,-83.022442,1103
SUN,5,00001308,N HIGH ST & W RUSSELL ST,6,4,11,39.975322,-83.003131,1104
SUN,6,00002738,SULLIVANT AVE & RYAN AVE,7,4,11,39.949461,-83.041734,1105
SUN,6,00003137,CLEVELAND AVE & E COOKE,8,2,10,40.045021,-82.958089,1106
SUN,2,00002497,E MAIN ST & FOUNTAIN LN,2,9,10,39.954911,-82.859692,1107
SUN,1,00001308,N HIGH ST & W RUSSELL ST,7,3,10,39.975294,-83.003095,1108
SUN,1,00001949,E LIVINGSTON AVE & BEECH,3,7,10,39.945677,-82.894207,1109
SUN,8,00007084,NATIONWIDE BLVD & MCCONN,4,6,10,39.968412,-83.00738,1110
SUN,4,00006415,S FRONT ST & W MAIN ST,4,7,10,39.955276,-83.001046,1111
SUN,7,00006701,STELZER RD AT SAMS CLUB,10,1,10,40.059436,-82.910409,1112
SUN,8,00004678,KARL RD & ELMORE AVE,7,3,10,40.042706,-82.977349,1113
SUN,33,00007181,6175 SAWMILL RD,10,1,10,40.091822,-83.091867,1114
SUN,2,00001274,N HIGH ST & W COOKE RD,7,3,10,40.049448,-83.020286,1115
SUN,8,00003105,NEIL AVE & KING AVE,4,6,10,39.99053,-83.013672,1116
SUN,6,00003711,CLEVELAND AVE & COMMUNIT,9,1,10,40.100073,-82.950014,1117
SUN,10,00004284,3953 W BROAD ST,5,6,10,39.953062,-83.107243,1118
SUN,9,00001842,BRENTNELL AVE & LEONARD,3,8,10,39.988258,-82.950253,1119
SUN,6,00001091,CLEVELAND AVE & JACK GIB,3,8,10,39.972498,-82.990175,1120
SUN,8,00005664,S HIGH ST & HIGHVIEW BLV,0,10,10,39.889361,-82.998014,1121
SUN,121,00005582,S FRONT ST & W BLENKNER,9,1,10,39.951758,-83.00027,1122
SUN,25,00005159,BRICE RD & LIVINGSTON AV,3,7,10,39.942613,-82.829775,1123
SUN,102,00006372,N HIGH ST & E ROYAL FORE,2,8,10,40.060893,-83.019506,1124
SUN,7,00005717,N CASSADY AVE & DEMONYE,2,9,10,39.998005,-82.930152,1125
SUN,6,00001098,CLEVELAND AVE & SHOEMAKE,2,8,10,39.988296,-82.987246,1126
SUN,7,00001659,E 5TH AVE & RARIG AVE,10,1,10,39.984892,-82.923469,1127
SUN,25,00003515,E MAIN ST & MCNAUGHTEN R,6,5,10,39.954742,-82.837726,1128
SUN,8,00007802,STATE RTE 161 & AMBLESID,1,9,10,40.087498,-82.981335,1129
SUN,6,00001122,CLEVELAND AVE & E NORTH,3,7,10,40.029778,-82.96411,1130
SUN,1,00001998,E LIVINGSTON AVE & RHOAD,4,6,10,39.948692,-82.948967,1131
SUN,21,00005740,BRITTON PKWY & HIRTH RD,5,6,10,40.072858,-83.138938,1132
SUN,8,00007805,STATE RTE 161 & SATINWOO,9,1,10,40.087307,-82.980818,1133
SUN,23,00005733,STELZER RD & GOVERNORS C,5,5,10,40.02944,-82.910686,1134
SUN,31,00006701,STELZER RD AT SAMS CLUB,10,1,10,40.059397,-82.910413,1135
SUN,32,00008009,W NORTH BROADWAY & OLENT,2,8,10,40.029966,-83.032437,1136
SUN,8,00004113,N 3RD ST & E GAY ST,4,6,10,39.964581,-82.998485,1137
SUN,2,00001264,N HIGH ST & FENWAY RD,10,0,10,40.067566,-83.019297,1138
SUN,6,00003135,CLEVELAND AVE & FERRIS R,8,2,10,40.049315,-82.95433,1139
SUN,6,00002728,SULLIVANT AVE & S RICHAR,7,3,10,39.944728,-83.066929,1140
SUN,4,00001515,SUMMIT ST & WARREN ST,0,10,10,39.97909,-83.000559,1141
SUN,8,00004227,NEIL AVE & W 8TH AVE,7,3,10,39.992341,-83.014107,1142
SUN,1,00007546,BETHEL RD & PICKFORDE DR,0,10,10,40.064799,-83.087098,1143
SUN,8,00001719,E 11TH AVE & N 4TH ST,7,3,10,39.994398,-82.999269,1144
SUN,32,00003722,OAKLAND PARK AVE & NORWO,5,5,10,40.031675,-82.972163,1145
SUN,3,00002451,W MOUND ST & GLENWOOD AV,6,3,10,39.947703,-83.028532,1146
SUN,8,00004604,RED ROBIN RD & TAMARACK,2,8,10,40.064859,-82.970492,1147
SUN,21,00007724,HILLIARD ROME RD & RENNE,1,9,10,39.981705,-83.150604,1148
SUN,34,00006873,MORSE CROSSING & SETON S,9,1,10,40.055077,-82.918427,1149
SUN,5,00006995,CHATTERTON RD & FALCON B,9,1,10,39.913713,-82.84755,1150
SUN,8,00001733,MCGUFFEY RD & BRIARWOOD,3,7,10,40.016999,-82.981468,1151
SUN,11,00007456,S FRONT ST & W BROAD ST,6,4,10,39.961728,-83.0025,1152
SUN,4,00001491,INDIANOLA AVE & MELROSE,6,4,10,40.025438,-83.001604,1153
SUN,7,00005072,N NELSON RD & MARYLAND A,8,2,10,39.977495,-82.945814,1154
SUN,10,00002490,E BROAD ST & S MERKLE RD,1,9,10,39.970791,-82.924213,1155
SUN,23,00001945,E LIVINGSTON AVE & ZETTL,3,6,10,39.946549,-82.910166,1156
SUN,3,00006599,HARRISBURG PIKE & HUMPHR,5,5,10,39.943137,-83.037822,1157
SUN,4,00005209,PARSONS AVE & THURMAN AV,1,9,10,39.939385,-82.983392,1158
SUN,11,00001797,E MOUND ST & S HIGH ST,1,9,10,39.954933,-82.998892,1159
SUN,31,00005103,MOCK RD & WOODLAND AVE,4,6,10,40.011693,-82.953693,1160
SUN,23,00001995,KIMBERLY PKWY N & BURGAN,4,6,10,39.922983,-82.893351,1161
SUN,6,00003126,CLEVELAND AVE & WILDWOOD,7,3,10,40.078479,-82.951646,1162
SUN,8,00001827,KARL RD & OAKLAND PARK A,4,6,10,40.032205,-82.978257,1163
SUN,2,00001204,N HIGH ST & E COMO AVE,2,8,10,40.028435,-83.014957,1164
SUN,32,00001744,OAKLAND PARK AVE & MAIZE,5,5,10,40.032556,-82.989179,1165
SUN,32,00004444,W NORTH BROADWAY & OLENT,9,1,10,40.030817,-83.029707,1166
SUN,24,00004330,S HAMILTON RD & DUNDEE A,4,6,10,39.94168,-82.878237,1167
SUN,24,00001174,S HAMILTON RD & ETNA RD,4,6,10,39.964293,-82.875967,1168
SUN,8,00004627,E 11TH AVE & DAUGHERTY A,4,5,10,39.994139,-82.992866,1169
SUN,5,00001182,N HIGH ST & E 2ND AVE,6,4,10,39.983312,-83.004719,1170
SUN,32,00003720,OAKLAND PARK AVE & HAMIL,7,3,10,40.031944,-82.97772,1171
SUN,6,00003857,CLEVELAND AVE & BROOKLYN,6,3,10,40.06166,-82.952768,1172
SUN,33,00007761,W HENDERSON RD & GETTYSB,2,7,10,40.056164,-83.072415,1173
SUN,31,00001497,E HUDSON ST & SUMMIT ST,4,6,10,40.015131,-83.000918,1174
SUN,5,00002258,S HIGH ST & E COLUMBUS S,4,6,10,39.94607,-82.997451,1175
SUN,23,00006663,4180 STELZER RD,1,9,10,40.059632,-82.910157,1176
SUN,152,00004123,N FRONT ST & W BROAD ST,6,4,10,39.962741,-83.002551,1177
SUN,2,00006011,E MAIN ST & LAMBY LN,3,6,10,39.955877,-82.892237,1178
SUN,23,00007617,COURTRIGH RD & ROSWELL R,3,7,10,39.938551,-82.897562,1179
SUN,22,00007968,AMAZON DR,9,0,10,39.846057,-82.929064,1180
SUN,2,00002297,E MAIN ST & BARNETT RD,3,6,10,39.956258,-82.905563,1181
SUN,10,00006383,E BROAD ST & MCNAUGHTEN,1,8,10,39.980371,-82.83465,1182
SUN,4,00007563,SINCLAIR RD & DUBLIN GRA,3,7,10,40.087675,-82.997324,1183
SUN,8,00007278,HAMILTON AVE & E 24TH AV,6,4,10,40.006368,-82.979508,1184
SUN,6,00001094,CLEVELAND AVE & E 2ND AV,3,6,10,39.98152,-82.989478,1185
SUN,5,00006420,W 5TH AVE & NEIL AVE,1,8,10,39.987375,-83.013461,1186
SUN,6,00002707,SULLIVANT AVE & S BURGES,1,9,10,39.944449,-83.068752,1188
SUN,8,00006066,S HIGH ST & SOUTHWOOD AV,8,1,10,39.932656,-82.995796,1188
SUN,4,00001507,SUMMIT ST & CHITTENDEN A,6,4,10,39.995373,-83.001471,1189
SUN,1,00001950,E LIVINGSTON AVE & VILAR,1,9,10,39.945534,-82.891679,1190
SUN,22,00003812,W 12TH AVE & N HIGH ST,3,7,9,39.99687,-83.008314,1191
SUN,6,00001836,CLEVELAND AVE & ORMOND A,7,2,9,40.046897,-82.956293,1192
SUN,7,00007903,STELZER RD & MORSE RD,1,8,9,40.058174,-82.910299,1193
SUN,32,00003825,W NORTH BROADWAY & RIVER,3,7,9,40.029558,-83.0357,1194
SUN,34,00005957,MORSE RD & MALIN ST,4,6,9,40.059943,-82.958127,1195
SUN,8,00002203,S HIGH ST & W FRANKFORT,4,5,9,39.947222,-82.997803,1196
SUN,7,00002184,GREENWAY AVE S & SHERBOU,2,7,9,39.97181,-82.950024,1197
SUN,141,00007498,DUBLIN DALE DR PARK & RI,8,2,9,40.101361,-83.107399,1198
SUN,34,00005958,MORSE RD & MALIN ST,4,6,9,40.05969,-82.957223,1199
SUN,5,00002761,E WHITTIER ST & STUDER A,1,8,9,39.943265,-82.965246,1200
SUN,8,00001807,MCGUFFEY RD & OAKLAND PA,6,3,9,40.031378,-82.980611,1201
SUN,6,00005731,CLEVELAND AVE & CLYBOURN,1,8,9,40.062068,-82.952898,1202
SUN,7,00001660,E 5TH AVE & ALTON AVE,6,3,9,39.984997,-82.926703,1203
SUN,8,00002793,PARSONS AVE & SOUTHWOOD,5,5,9,39.931668,-82.983975,1204
SUN,9,00004564,S CENTRAL AVE & W RICH S,6,3,9,39.95329,-83.037152,1205
SUN,8,00001385,S HIGH ST & STEWART AVE,7,3,9,39.94185,-82.99663,1206
SUN,8,00007277,HAMILTON AVE & E 24TH AV,6,4,9,40.006587,-82.979441,1207
SUN,25,00006832,PARK CRESCENT DR & CHANT,5,4,9,39.926828,-82.844119,1208
SUN,8,00002235,S HIGH ST & WILLIAMS RD,8,1,9,39.89217,-82.996332,1209
SUN,7,00005666,1500 N CASSADY AVE,4,5,9,40.001047,-82.929949,1210
SUN,32,00001750,OAKLAND PARK AVE & KARL,4,5,9,40.032018,-82.977958,1211
SUN,8,00002201,S HIGH ST & W BLENKNER S,4,5,9,39.95178,-82.998693,1212
SUN,5,00003238,REFUGEE RD & SCHWARTZ RD,3,6,9,39.917043,-82.908651,1213
SUN,4,00005207,PARSONS AVE & ELSMERE ST,5,4,9,39.949391,-82.982624,1214
SUN,4,00001436,E HUDSON ST & SUMMIT ST,1,8,9,40.015196,-83.000492,1216
SUN,23,00004846,COURTRIGHT RD & OAKCREST,2,7,9,39.924867,-82.898776,1216
SUN,6,00007519,E NAGHTEN ST & N 5TH ST,4,5,9,39.9688,-82.996351,1217
SUN,9,00002369,W TOWN ST & S DAVIS AVE,6,3,9,39.956239,-83.021256,1218
SUN,6,00004959,SULLIVANT AVE & GEORGESV,1,8,9,39.94239,-83.111754,1219
SUN,2,00002306,E MAIN ST & BERNHARD RD,0,9,9,39.955524,-82.880084,1220
SUN,7,00006663,4180 STELZER RD,1,9,9,40.059639,-82.910173,1221
SUN,31,00007791,E HUDSON ST & ONTARIO ST,4,5,9,40.014047,-82.976622,1222
SUN,10,00006384,E BROAD ST & MCNAUGHTEN,6,3,9,39.980233,-82.837086,1223
SUN,152,00006325,W NATIONWIDE BLVD & N FR,9,0,9,39.968794,-83.002893,1224
SUN,5,00007397,N WILSON RD & W BROAD ST,7,2,9,39.954686,-83.094583,1225
SUN,4,00001501,SUMMIT ST & ALDEN AVE,5,4,9,40.007896,-83.000609,1226
SUN,3,00001334,NORTHWEST BLVD & W 5TH A,5,4,9,39.988917,-83.040745,1227
SUN,7,00003147,N CASSADY AVE & E 10TH A,2,7,9,39.98969,-82.930612,1228
SUN,22,00005234,W 9TH AVE & MEDICAL CTR,5,5,9,39.993366,-83.016678,1229
SUN,2,00002302,E MAIN ST & KARL ST,1,8,9,39.955787,-82.889028,1230
SUN,4,00007302,PARSONS AVE & COLUMBUS S,4,5,9,39.946397,-82.982859,1231
SUN,22,00004625,E 11TH AVE & N PEARL ST,9,0,9,39.994734,-83.005915,1232
SUN,33,00001266,N HIGH ST & GRACELAND BL,8,1,9,40.064655,-83.019452,1233
SUN,5,00006989,CHATTERTON RD & FALCON B,0,9,9,39.913612,-82.846991,1234
SUN,11,00005048,E RICH ST & S 5TH ST,5,4,9,39.958118,-82.993485,1235
SUN,4,00000525,SPRING ST TERMINAL BAY 1,5,4,9,39.965688,-83.001907,1236
SUN,1,00003491,OLENTANGY RIVER RD & UNI,8,1,9,40.027087,-83.027799,1237
SUN,6,00005052,SULLIVANT AVE & DEMOREST,2,7,9,39.942943,-83.090067,1238
SUN,8,00003716,KARL RD & SHANLEY DR,8,1,9,40.054801,-82.976437,1239
SUN,32,00003490,W NORTH BROADWAY & RIVER,7,2,9,40.029408,-83.034628,1240
SUN,2,00002317,E MAIN ST & WESTPHAL AVE,9,0,9,39.955699,-82.882144,1241
SUN,34,00007335,MORSE RD & CHATEAU MORSE,4,5,9,40.058505,-82.93276,1242
SUN,2,00003703,E MAIN ST & BRIARCLIFF R,0,9,9,39.955053,-82.811477,1243
SUN,21,00005216,RESLER DR & SAWMILL RD,1,8,9,40.067866,-83.091572,1244
SUN,1,00003825,W NORTH BROADWAY & RIVER,6,3,9,40.029553,-83.035665,1245
SUN,24,00007359,N HAMILTON RD & STONERID,7,2,9,40.052495,-82.863988,1246
SUN,6,00004548,SULLIVANT AVE & S WESTGA,1,8,9,39.943325,-83.082011,1247
SUN,8,00004007,KARL RD & SANDALWOOD PL,8,1,9,40.077259,-82.976101,1248
SUN,3,00002867,NORTHWEST BLVD & W 5TH A,4,5,9,39.9888,-83.04093,1249
SUN,8,00006321,N FRONT ST & NATIONWIDE,2,7,9,39.968447,-83.003743,1250
SUN,4,00002111,FREBIS AVE & S 18TH ST,0,8,9,39.935239,-82.978515,1251
SUN,2,00001218,N HIGH ST & E WEISHEIMER,1,8,9,40.055243,-83.019831,1252
SUN,4,00004868,2441 LOCKBOURNE RD,2,7,9,39.914413,-82.966089,1253
SUN,1,00003421,3368 OLENTANGY RIVER RD,2,7,9,40.027612,-83.028013,1254
SUN,9,00002440,W MOUND ST & CLARENDON A,7,2,9,39.940227,-83.056209,1255
SUN,6,00002733,SULLIVANT AVE & BELVIDER,6,3,9,39.947012,-83.054763,1256
SUN,9,00001849,BRENTNELL AVE & ARGYLE D,2,7,9,40.004098,-82.948759,1257
SUN,8,00004298,145 OBETZ RD,5,4,9,39.881862,-82.992554,1258
SUN,31,00004445,221 W 12TH AVE,7,2,9,39.996878,-83.013518,1259
SUN,10,00002654,W BROAD ST & S ROYS AVE,6,3,9,39.954711,-83.077968,1260
SUN,1,00003490,W NORTH BROADWAY & RIVER,4,4,9,40.029412,-83.034665,1261
SUN,4,00002790,PARSONS AVE & E GATES ST,1,8,9,39.937023,-82.983621,1262
SUN,10,00002491,E BROAD ST & S BROADLEIG,1,7,9,39.971006,-82.922218,1263
SUN,32,00001558,RIDGECLIFF RD & TREMONT,2,7,9,40.022507,-83.060089,1264
SUN,31,00006517,EASTON WAY & MORSE CROSS,1,8,9,40.048478,-82.919514,1265
SUN,6,00001835,CLEVELAND AVE & LEHNER R,7,2,9,40.052319,-82.95367,1266
SUN,1,00007413,HIGH ST & PRESCOTT ST,5,4,9,39.980163,-83.004133,1267
SUN,7,00005283,E 5TH AVE & NORTHVIEW AV,2,7,9,39.985223,-82.933846,1268
SUN,8,00001771,KARL RD & NORTHLAND PARK,1,8,9,40.05772,-82.976595,1269
SUN,152,00006768,E CHESTNUT ST & N HIGH S,2,7,9,39.96777,-83.000822,1270
SUN,31,00001436,E HUDSON ST & SUMMIT ST,5,4,9,40.015183,-83.000509,1271
SUN,2,00001279,N HIGH ST & NORTHMOOR PL,6,3,9,40.036205,-83.017156,1272
SUN,3,00002373,S SOUDER AVE & THOMAS AV,1,7,9,39.950814,-83.021234,1273
SUN,6,00003074,CLEVELAND AVE & HOME ACR,1,8,9,40.097969,-82.95001,1274
SUN,31,00005743,NEIL AVE & W 11TH AVE,4,5,9,39.995919,-83.014717,1275
SUN,5,00007025,RENNER RD & RENTRA DR,0,9,9,39.981815,-83.146542,1276
SUN,31,00007781,E HUDSON ST & JOYCE AVE,7,2,9,40.013467,-82.961909,1277
SUN,8,00001806,KARL RD & OAKLAND PARK A,2,6,9,40.032342,-82.978274,1278
SUN,23,00007929,KIMBERLY PKWY N & CANAL,5,3,9,39.923163,-82.893088,1279
SUN,31,00003644,E HUDSON ST & AZELDA AVE,6,3,9,40.01459,-82.987509,1280
SUN,7,00005679,1500 N CASSADY AVE,5,4,9,40.001085,-82.930061,1281
SUN,9,00007792,DEMOREST RD SHOPPING CEN,6,3,9,39.92952,-83.090268,1282
SUN,22,00003576,S OHIO AVE & E WHITTIER,1,7,9,39.943727,-82.971931,1284
SUN,10,00007976,N WALL ST & W SPRING ST,6,3,9,39.965927,-83.002274,1284
SUN,4,00007466,S FRONT ST & W TOWN ST,2,6,9,39.958756,-83.001813,1285
SUN,5,00006956,REFUGEE RD & WINCHESTER,6,3,9,39.917415,-82.913489,1286
SUN,33,00005131,BETHEL RD & DIERKER RD,5,4,9,40.0643,-83.075777,1287
SUN,3,00006200,ZOLLINGER RD & NORTHWEST,1,7,9,40.018689,-83.057825,1288
SUN,102,00006783,POLARIS PKWY & POLARIS M,8,1,9,40.141917,-82.985726,1289
SUN,2,00001216,N HIGH ST & E COOKE RD,2,7,9,40.050233,-83.020107,1290
SUN,7,00007273,N GOULD RD & ALLEGHENY A,4,4,9,39.98047,-82.922248,1291
SUN,7,00000281,MORSE CROSSING & EASTON,8,1,9,40.048016,-82.920023,1292
SUN,23,00007614,COURTRIGHT RD & ROSWELL,7,1,9,39.937949,-82.897551,1293
SUN,8,00001103,CLEVELAND AVE & E 15TH A,4,5,8,39.998523,-82.976891,1294
SUN,11,00006401,1025 ALUM CREEK DR,5,4,8,39.946712,-82.945107,1295
SUN,7,00004513,RUHL AVE & N GOULD RD,5,4,8,39.97818,-82.922347,1296
SUN,31,00003600,E HUDSON ST & HOMECROFT,3,5,8,40.014725,-82.991969,1297
SUN,2,00002324,E MAIN ST & MAPLEWOOD AV,7,1,8,39.956311,-82.903447,1298
SUN,6,00007293,W RICH ST & S GRUBB ST,1,7,8,39.955611,-83.016676,1299
SUN,4,00007112,WILLIAMS RD & ARIES BROO,4,5,8,39.888945,-82.928866,1300
SUN,9,00001901,BRENTNELL AVE & LEONARD,5,3,8,39.98805,-82.950268,1301
SUN,102,00007472,POLARIS PKWY & ORION PL,1,7,8,40.142949,-82.965772,1302
SUN,33,00002902,HENDERSON RD & GETTYSBUR,6,2,8,40.055948,-83.072265,1303
SUN,2,00001963,E MAIN ST & COUNTRY CLUB,3,6,8,39.955148,-82.867508,1304
SUN,8,00007205,E SPRING ST & N 4TH ST,3,5,8,39.966535,-82.997983,1305
SUN,3,00006980,BUCKEYE PKWY & ROAD B,7,1,8,39.876352,-83.03988,1306
SUN,10,00006820,E BROAD ST & WAGGONER RD,1,8,8,39.98525,-82.790521,1307
SUN,6,00005596,GEORGESVILLE RD & INDUST,8,0,8,39.942706,-83.111866,1309
SUN,6,00007027,SULLIVANT AVE & GEORGESV,7,1,8,39.941877,-83.11083,1309
SUN,6,00002701,SULLIVANT AVE & WREXHAM,2,7,8,39.947391,-83.053096,1310
SUN,32,00006295,INNIS RD & BOYLESTON BLV,3,6,8,40.037043,-82.947882,1311
SUN,24,00002560,S HAMILTON RD & ETNA RD,4,4,8,39.964837,-82.876092,1312
SUN,10,00002503,E BROAD ST & BEECHWOOD R,1,7,8,39.97426,-82.891698,1313
SUN,5,00002769,E WHITTIER ST & LOCKBOUR,6,2,8,39.943269,-82.963407,1314
SUN,24,00003932,S HAMILTON RD & GROVES R,6,2,8,39.93057,-82.879136,1315
SUN,7,00003653,E 5TH AVE & NORTHVIEW AV,6,2,8,39.985295,-82.933752,1316
SUN,31,00007788,E HUDSON ST & DRESDEN ST,3,5,8,40.013861,-82.972209,1317
SUN,10,00002507,E BROAD ST & SANTA MARIA,2,6,8,39.975346,-82.881288,1318
SUN,4,00002141,KOEBEL RD & FAIRWOOD AVE,7,1,8,39.912114,-82.957062,1319
SUN,31,00005294,2315 MOCK RD,2,6,8,40.0114,-82.947234,1320
SUN,6,00001157,CLEVELAND AVE & CAMDEN A,3,6,8,39.990798,-82.984795,1321
SUN,9,00005462,GEORGESVILLE & PARKWICK,7,1,8,39.927411,-83.11735,1322
SUN,8,00001814,MCGUFFEY RD & BRIARWOOD,4,5,8,40.016922,-82.981512,1323
SUN,3,00006965,COLUMBUS ST & BROADWAY,4,4,8,39.883431,-83.092109,1324
SUN,6,00001162,CLEVELAND AVE & REYNOLDS,6,3,8,39.9812,-82.989607,1325
SUN,6,00002696,SULLIVANT AVE & MARTHA A,3,5,8,39.949815,-83.040204,1326
SUN,33,00007183,SAWMILL RD & DUBLIN-GRAN,8,1,8,40.096289,-83.091679,1327
SUN,34,00005956,MORSE RD & HEATON RD,2,6,8,40.060365,-82.968039,1328
SUN,5,00006719,W 5TH AVE & LOWER CHELSE,2,6,8,39.989699,-83.064005,1329
SUN,102,00001251,S HIGH ST & W STATE ST,1,7,8,39.960401,-83.000249,1330
SUN,10,00007252,HOLLYWOOD CASINO,4,4,8,39.951155,-83.107627,1331
SUN,6,00005389,GEORGESVILLE RD & W BROA,7,1,8,39.952051,-83.110325,1332
SUN,31,00003646,E HUDSON ST & HOMECROFT,5,3,8,40.014824,-82.992482,1333
SUN,1,00003219,E LIVINGSTON AVE & NOE B,7,1,8,39.943507,-82.853951,1334
SUN,6,00004284,3953 W BROAD ST,1,8,8,39.953021,-83.107426,1336
SUN,23,00004765,S JAMES RD & E MOUND ST,2,6,8,39.954263,-82.914969,1336
SUN,25,00003706,E MAIN ST & BRICE RD,2,6,8,39.954786,-82.829678,1337
SUN,34,00001264,N HIGH ST & FENWAY RD,7,1,8,40.067334,-83.019305,1338
SUN,2,00002288,E MAIN ST & MONTROSE AVE,3,5,8,39.956959,-82.930743,1339
SUN,3,00007970,W 3RD AVE & EDGEHILL RD,1,7,8,39.984416,-83.029735,1340
SUN,8,00004686,E 11TH AVE & DAUGHERTY A,4,4,8,39.994223,-82.993052,1341
SUN,3,00006964,STRINGTOWN RD & PARKMEAD,5,3,8,39.879007,-83.063107,1342
SUN,8,00002819,PARSONS AVE & MARION RD,3,5,8,39.923484,-82.984468,1343
SUN,102,00005137,E CAMPUS VIEW BLVD & VAN,7,1,8,40.118333,-83.013417,1344
SUN,10,00004409,W BROAD ST & RHODES PARK,2,6,8,39.956312,-83.050372,1345
SUN,23,00004767,S JAMES RD & FAIR AVE,3,5,8,39.961496,-82.91431,1346
SUN,8,00001751,KARL RD & HUY RD,2,6,8,40.03558,-82.977899,1347
SUN,3,00002968,BROADWAY & HOME RD,0,8,8,39.901302,-83.077977,1348
SUN,11,00007515,E SPRING ST & N HIGH ST,2,6,8,39.966299,-83.001135,1349
SUN,33,00007740,W HENDERSON RD & KENNY R,2,6,8,40.052994,-83.049982,1350
SUN,8,00001829,E 11TH AVE & N GRANT AVE,4,4,8,39.994319,-82.995506,1351
SUN,31,00005742,153 W 12TH AVE - HALE HA,4,3,8,39.996803,-83.011403,1352
SUN,102,00007413,HIGH ST & PRESCOTT ST,4,4,8,39.980109,-83.004109,1353
SUN,22,00007378,E 5TH AVE & WALTERS ST,6,2,8,39.986263,-82.983031,1354
SUN,2,00002281,E MAIN ST & RHOADS AVE,2,6,8,39.957391,-82.948989,1355
SUN,1,00004667,E LIVINGSTON AVE & MCNAU,7,1,8,39.942654,-82.838012,1356
SUN,11,00007260,TAYLOR AVE & E LONG ST,5,3,8,39.96936,-82.961636,1357
SUN,24,00003909,S HAMILTON RD & MACSWAY,0,8,8,39.92324,-82.88001,1358
SUN,9,00001894,BRENTNELL AVE & ARGYLE D,7,1,8,40.004001,-82.948842,1359
SUN,22,00008012,EDGEHILL RD & W 5TH AVE,1,7,8,39.98689,-83.029205,1361
SUN,23,00005668,STELZER RD & AGLER RD,2,6,8,40.021103,-82.911169,1361
SUN,4,00002155,FREBIS AVE & S 18TH ST,7,1,8,39.935278,-82.978534,1362
SUN,7,00001654,E 7TH AVE & STELZER RD,8,0,8,39.986129,-82.913694,1363
SUN,24,00003933,S HAMILTON RD & DUNDEE A,5,3,8,39.941269,-82.878131,1364
SUN,9,00003759,SAINT CLAIR AVE & LEONAR,6,1,8,39.975016,-82.980633,1366
SUN,8,00001152,CLEVELAND AVE & E 15TH A,6,2,8,39.998829,-82.976799,1366
SUN,6,00006508,CLEVELAND AVE & E 3RD AV,5,3,8,39.98387,-82.989408,1367
SUN,4,00006925,ALUM CREEK DR & WILLIAMS,4,3,8,39.889621,-82.930009,1368
